	Unnamed: 0	City	latitude	longitude
0	0	DALLAS	32.7762719	32.7762719
1	1	MURPHYS	38.1374202	38.1374202
2	2	HOUSTON	29.7589382	29.7589382
3	3	ARTESIA	33.8690197	33.8690197
4	4	CHATSWORTH	42.9156667	42.9156667
5	5	COLUMBUS	39.9622601	39.9622601
6	6	FREMONT	37.5482697	37.5482697
7	7	EMPORIA	38.4040054	38.4040054
8	8	PLANO	33.0136764	33.0136764
9	9	SMYRNA	38.4224548	38.4224548
10	10	SAN FRANCISCO	37.7790262	37.7790262
11	11	CORAL GABLES	25.6915434	25.6915434
12	12	SAN JOSE	37.3361905	37.3361905
13	13	DECATUR	39.8454163	39.8454163
14	14	SAN DIEGO	32.7174202	32.7174202
15	15	LATHAM	39.9686517	39.9686517
16	16	CAMPBELL	37.2870626	37.2870626
17	17	POPLAR BLUFF	36.7568327	36.7568327
18	18	BEECH ISLAND	33.4273614	33.4273614
19	19	CULVER CITY	34.0211224	34.0211224
20	20	MADISON HEIGHTS	42.4858692	42.4858692
21	21	NEEDHAM HEIGHTS	42.2931505	42.2931505
22	22	MILFORD	41.2222218	41.2222218
23	23	LAS VEGAS	36.1672559	36.1672559
24	24	VICTORIA	-36.5986096	-36.5986096
25	25	BIRMINGHAM	52.4796992	52.4796992
26	26	RIGBY	43.6751937	43.6751937
27	27	NOGALES	38.5865813	38.5865813
28	28	GLENDALE HEIGHTS	41.919522	41.919522
29	29	BOLTON	53.5782863	53.5782863
30	30	BEVERLY	42.5584284	42.5584284
31	31	LEAVENWORTH	39.2147095	39.2147095
32	32	SAN MATEO	37.496904	37.496904
33	33	CHERRY HILL	39.9348351	39.9348351
34	34	WASHINGTON	38.8950368	38.8950368
35	35	WESTFORD	42.5792583	42.5792583
36	36	HOLMDEL	40.3451095	40.3451095
37	37	WHITE PLAINS	41.0339862	41.0339862
38	38	PHILADELPHIA	39.9527237	39.9527237
39	39	NEW ROCHELLE	40.9115386	40.9115386
40	40	SANTA ROSA	38.4404925	38.4404925
41	41	FRAMINGHAM	42.3095704	42.3095704
42	42	BRUNSWICK	52.2646577	52.2646577
43	43	CARROLLTON	32.9537349	32.9537349
44	44	CHAPEL HILL	35.9131542	35.9131542
45	45	BLUE ASH	39.2320073	39.2320073
46	46	CINCINNATI	39.1014537	39.1014537
47	47	BALTIMORE	39.2908816	39.2908816
48	48	RICHARDSON	40.1194651	40.1194651
49	49	SAINT LOUIS	38.6264256	38.6264256
50	50	GARDENA	33.8963593	33.8963593
51	51	FORT WORTH	32.753177	32.753177
52	52	NORTH LAS VEGAS	36.2005843	36.2005843
53	53	MINDEN	52.2881045	52.2881045
54	54	CARTERET	40.5773266	40.5773266
55	55	WALL TOWNSHIP	40.1743052	40.1743052
56	56	PHOENIX	33.4484367	33.4484367
57	57	LOUISVILLE	38.2542376	38.2542376
58	58	MARYSVILLE	48.0517429	48.0517429
59	59	CELEBRATION	-1.2310527	-1.2310527
60	60	NEW YORK	40.7127281	40.7127281
61	61	MEMPHIS	35.1490215	35.1490215
62	62	ALICEVILLE	33.1295681	33.1295681
63	63	CHELSEA	51.4875167	51.4875167
64	64	WYNNE	35.224533	35.224533
65	65	PORT WASHINGTON	40.8254914	40.8254914
66	66	JONESBORO	35.8272257	35.8272257
67	67	LAGUNA NIGUEL	33.5225261	33.5225261
68	68	STATHAM	33.9654884	33.9654884
69	69	IRVINE	33.6856969	33.6856969
70	70	BOSTON	42.3602534	42.3602534
71	71	ROCKFORD	42.2713945	42.2713945
72	72	CHARLOTTE	35.2272086	35.2272086
73	73	PONTE VEDRA BEACH	30.2396865	30.2396865
74	74	SANTA FE SPRINGS	33.9480787	33.9480787
75	75	QUINCY	42.2509914	42.2509914
76	76	ALEXANDRIA	31.199004	31.199004
77	77	TROY	39.95737395	39.95737395
78	78	STOW	41.1596261	41.1596261
79	79	WEST CHESTER	39.9597213	39.9597213
80	80	FORT LAUDERDALE	26.1223084	26.1223084
81	81	BOWLING GREEN	36.9903199	36.9903199
82	82	EL PASO	31.7754152	31.7754152
83	83	WALTHAM	42.3756401	42.3756401
84	84	RALEIGH	35.7803977	35.7803977
85	85	LAKE CHARLES	30.2265949	30.2265949
86	86	COLEMAN	31.7766863	31.7766863
87	87	BAKERSFIELD	35.3738712	35.3738712
88	88	LOS ANGELES	34.0536909	34.0536909
89	89	WAUKESHA	43.0053145	43.0053145
90	90	MIAMI	25.7741728	25.7741728
91	91	SPRINGFIELD	39.7990175	39.7990175
92	92	ADDISON	41.931696	41.931696
93	93	ORLANDO	28.5421109	28.5421109
94	94	SANTA CLARA	37.2333253	37.2333253
95	95	DAVIE	26.07441465	26.07441465
96	96	BEDFORD	52.1363806	52.1363806
97	97	WAYNESBORO	38.0686668	38.0686668
98	98	SACRAMENTO	38.5810606	38.5810606
99	99	SAN ANTONIO	29.4246002	29.4246002
100	100	CARLSBAD	50.2304694	50.2304694
101	101	ROCHESTER	43.157285	43.157285
102	102	INDIANAPOLIS	39.7683331	39.7683331
103	103	CALVERT CITY	37.0333896	37.0333896
104	104	DUBLIN	53.3497645	53.3497645
105	105	ENGLEWOOD	39.6482059	39.6482059
106	106	WEST PALM BEACH	26.715364	26.715364
107	107	HEATH	32.8365147	32.8365147
108	108	AVON LAKE	41.510033	41.510033
109	109	RHINEBECK	41.9268754	41.9268754
110	110	EARLVILLE	42.4816229	42.4816229
111	111	OAKLAND	37.8044557	37.8044557
112	112	AUSTIN	30.2711286	30.2711286
113	113	VIENNA	48.2083537	48.2083537
114	114	EULESS	32.8457865	32.8457865
115	115	WORCESTER	42.2625621	42.2625621
116	116	HUNTSVILLE	34.729847	34.729847
117	117	ROWLEY	42.3699889	42.3699889
118	118	NEPTUNE	39.0753562	39.0753562
119	119	OAK RIDGE	36.0103562	36.0103562
120	120	VERNON	49.0917814	49.0917814
121	121	LYNWOOD	33.924831	33.924831
122	122	CITY OF INDUSTRY	34.0182252	34.0182252
123	123	DORAL	25.8195424	25.8195424
124	124	WOOSTER	40.7980976	40.7980976
125	125	EL CAJON	32.7947731	32.7947731
126	126	VISTA	33.2000368	33.2000368
127	127	OMAHA	41.2587459	41.2587459
128	128	ROCKVILLE	39.0817985	39.0817985
129	129	KANSAS CITY	39.100105	39.100105
130	130	MISSION	26.2159066	26.2159066
131	131	WHIPPANY	40.8245442	40.8245442
132	132	ESCONDIDO	33.1216751	33.1216751
133	133	MORRISVILLE	47.88338805	47.88338805
134	134	MILPITAS	37.4332273	37.4332273
135	135	LARGO	27.9094665	27.9094665
136	136	AKRON	41.083064	41.083064
137	137	LOS ALTOS	42.7811566	42.7811566
138	138	ATLANTA	33.7489924	33.7489924
139	139	RANCHO CUCAMONGA	34.1033192	34.1033192
140	140	CHINO	34.0133561	34.0133561
141	141	PEORIA	40.6938609	40.6938609
142	142	MILWAUKEE	43.0349931	43.0349931
143	143	WILLIAMSVILLE	39.9542161	39.9542161
144	144	RENTON	47.4799078	47.4799078
145	145	CAMARILLO	34.2176371	34.2176371
146	146	CHICAGO	41.8755616	41.8755616
147	147	COLUMBIA	4.099917	4.099917
148	148	ANAHEIM	33.8347516	33.8347516
149	149	PORTLAND	45.5202471	45.5202471
150	150	FOLSOM	38.6779591	38.6779591
151	151	VICTOR	41.7313887	41.7313887
152	152	CALEXICO	32.6790572	32.6790572
153	153	ROSWELL	34.02332	34.02332
154	154	LAWRENCEVILLE	33.9562149	33.9562149
155	155	FARMINGDALE	40.7328811	40.7328811
156	156	RIDGECREST	35.6225064	35.6225064
157	157	ABINGDON	51.6714842	51.6714842
158	158	BROOKPARK	51.7172828	51.7172828
159	159	WICHITA	37.6922361	37.6922361
160	160	GRANDVILLE	48.5956451	48.5956451
161	161	PORTSMOUTH	50.8036831	50.8036831
162	162	HUDSON	42.7654433	42.7654433
163	163	BOCA RATON	26.3586885	26.3586885
164	164	ETHRIDGE	33.1345794	33.1345794
165	165	BELLEVUE	47.6144219	47.6144219
166	166	OGDEN	41.2230048	41.2230048
167	167	GREENBELT	38.9933654	38.9933654
168	168	MONROVIA	6.328034	6.328034
169	169	RIVERSIDE	33.7219991	33.7219991
170	170	CHESTERFIELD	38.661953	38.661953
171	171	TAMPA	27.9477595	27.9477595
172	172	MANITOWOC	44.0886059	44.0886059
173	173	CLACKAMAS	45.4146516	45.4146516
174	174	MONTCLAIR	40.8164458	40.8164458
175	175	WILMINGTON	39.7459468	39.7459468
176	176	FOWLER	36.6305058	36.6305058
177	177	BROOKLYN	40.6526006	40.6526006
178	178	DYERSBURG	36.0346393	36.0346393
179	179	PASO ROBLES	35.6267654	35.6267654
180	180	WARREN	40.8442828	40.8442828
181	181	TAYLOR	32.2793121	32.2793121
182	182	BURLINGAME	37.5841026	37.5841026
183	183	PISCATAWAY	38.7006716	38.7006716
184	184	CANTON	23.1301964	23.1301964
185	185	RED BANK	40.3470543	40.3470543
186	186	NASHVILLE	36.1622767	36.1622767
187	187	FORT WASHINGTON	38.738019	38.738019
188	188	DENVER	39.7392364	39.7392364
189	189	AMARGOSA VALLEY	36.4951365	36.4951365
190	190	HERNDON	39.909726	39.909726
191	191	ROCKWALL	32.8923464	32.8923464
192	192	ALLEN	37.8882168	37.8882168
193	193	FRISCO	33.1506744	33.1506744
194	194	BUFFALO	42.8867166	42.8867166
195	195	BROKEN ARROW	36.0525993	36.0525993
196	196	CHEFORNAK	60.153405	60.153405
197	197	SALINE	37.750075	37.750075
198	198	BEAVERCREEK	39.7092262	39.7092262
199	199	IRVING	32.8295183	32.8295183
200	200	KEARNY	37.9960049	37.9960049
201	201	ZEELAND	51.4162975	51.4162975
202	202	FORDS	40.5411231	40.5411231
203	203	GOLETA	34.4358295	34.4358295
204	204	BLUE BELL	40.152331	40.152331
205	205	GAINESVILLE	29.6519684	29.6519684
206	206	KENT	51.20707485	51.20707485
207	207	SOUTHFIELD	42.4733689	42.4733689
208	208	NORTHVILLE	42.4310806	42.4310806
209	209	MIRAMAR	25.9825093	25.9825093
210	210	WOBURN	42.4792618	42.4792618
211	211	ALBUQUERQUE	35.0841034	35.0841034
212	212	FORT MILL	35.0073697	35.0073697
213	213	CYPRESS	29.9691116	29.9691116
214	214	LAREDO	27.5236998	27.5236998
215	215	FOSTER CITY	37.5600336	37.5600336
216	216	GREENVILLE	34.851354	34.851354
217	217	REDMOND	47.6694141	47.6694141
218	218	SOUTH PADRE ISLAND	26.1036887	26.1036887
219	219	ONTARIO	50.000678	50.000678
220	220	BERWYN	41.8505874	41.8505874
221	221	MARLBOROUGH	42.3459271	42.3459271
222	222	MUKILTEO	47.9474034	47.9474034
223	223	EDGEWOOD	42.6444914	42.6444914
224	224	JACKSONVILLE	30.3321838	30.3321838
225	225	SIGNAL HILL	33.804826	33.804826
226	226	EAGLEVILLE	40.4691664	40.4691664
227	227	ORANGE BEACH	30.2828398	30.2828398
228	228	HOOVER	33.3864655	33.3864655
229	229	HARRISBURG	40.2663107	40.2663107
230	230	IRONDALE	33.5381601	33.5381601
231	231	RIO VISTA	32.2334808	32.2334808
232	232	DEARBORN	42.3222599	42.3222599
233	233	TUCKER	33.85162905	33.85162905
234	234	COMPTON	33.894927	33.894927
235	235	MONROE	38.2722313	38.2722313
236	236	NORCROSS	33.9412127	33.9412127
237	237	SILVER SPRING	38.9997621	38.9997621
238	238	IRWINDALE	34.1069927	34.1069927
239	239	WOODLAND HILLS	34.1684364	34.1684364
240	240	SANTA MONICA	34.0194704	34.0194704
241	241	PETALUMA	38.270022	38.270022
242	242	FREDERICK	39.415779	39.415779
243	243	NEWTOWN	52.5135785	52.5135785
244	244	GREENLAND	77.6192349	77.6192349
245	245	CLINTONVILLE	44.6205348	44.6205348
246	246	SAINT JOSEPH	49.5344534	49.5344534
247	247	COUNCIL BLUFFS	41.258841	41.258841
248	248	MURRIETA	33.5777524	33.5777524
249	249	MESA	33.4151117	33.4151117
250	250	BURLINGTON	44.4761601	44.4761601
251	251	NORFOLK	52.666667	52.666667
252	252	GRAND RAPIDS	42.9632405	42.9632405
253	253	ANNAPOLIS	38.9786401	38.9786401
254	254	SPOKANE	47.6571934	47.6571934
255	255	RIVERDALE	41.6333678	41.6333678
256	256	BELLINGHAM	48.7544012	48.7544012
257	257	MANCHESTER	53.4794892	53.4794892
258	258	CAMBRIDGE	52.2055314	52.2055314
259	259	GLEN BURNIE	39.1595439	39.1595439
260	260	LAKELAND	28.0394654	28.0394654
261	261	LONG BEACH	33.7690164	33.7690164
262	262	SCOTTSDALE	33.4942189	33.4942189
263	263	DOWNERS GROVE	41.7936822	41.7936822
264	264	SALT LAKE CITY	40.7596198	40.7596198
265	265	DAYTON	39.7589478	39.7589478
266	266	DAHLONEGA	34.5328484	34.5328484
267	267	SEATTLE	47.6038321	47.6038321
268	268	GARDEN GROVE	33.7746292	33.7746292
269	269	MILLINGTON	35.3414745	35.3414745
270	270	KITTERY	43.088448	43.088448
271	271	ELMSFORD	41.0550969	41.0550969
272	272	SOUTH SAN FRANCISCO	37.6535403	37.6535403
273	273	GULF BREEZE	30.3612885	30.3612885
274	274	INDIO	33.743765	33.743765
275	275	ITASCA	47.4968343	47.4968343
276	276	LEVITTOWN	40.7219525	40.7219525
277	277	RIVERVIEW	46.0612076	46.0612076
278	278	JACKSON	32.2990021	32.2990021
279	279	ARCADIA	34.1362075	34.1362075
280	280	LANCASTER	40.03813	40.03813
281	281	STATEN ISLAND	40.5834557	40.5834557
282	282	DUNWOODY	33.9463786	33.9463786
283	283	LIVERMORE	37.6820583	37.6820583
284	284	WEST HARTFORD	41.7620447	41.7620447
285	285	KENNER	29.9942265	29.9942265
286	286	AZUSA	34.1338751	34.1338751
287	287	MOORESTOWN	40.7787071	40.7787071
288	288	NORTH CHARLESTON	32.8546197	32.8546197
289	289	STAFFORD	52.8063157	52.8063157
290	290	HAVERTOWN	39.9809452	39.9809452
291	291	LOCKPORT	41.5894753	41.5894753
292	292	SOMERSET	51.16175085	51.16175085
293	293	MINNEAPOLIS	44.9772995	44.9772995
294	294	SONOMA	38.5110803	38.5110803
295	295	CAMP HILL	40.2398118	40.2398118
296	296	OXNARD	34.1976308	34.1976308
297	297	GARDEN CITY	37.9716898	37.9716898
298	298	MOORESVILLE	35.5848596	35.5848596
299	299	SAINT CLOUD	48.8437412	48.8437412
300	300	MERIDIAN	32.3643098	32.3643098
301	301	MUNHALL	40.3922914	40.3922914
302	302	PELHAM	33.285669	33.285669
303	303	DETROIT	42.3315509	42.3315509
304	304	MADISON	43.074761	43.074761
305	305	BRAINTREE	42.2064195	42.2064195
306	306	FARMINGTON HILLS	42.4853125	42.4853125
307	307	MC LEAN	34.3594514	34.3594514
308	308	SEAL BEACH	33.7423967	33.7423967
309	309	FREEPORT	42.2966861	42.2966861
310	310	GLENWOOD	41.5424867	41.5424867
311	311	PACOIMA	34.2625025	34.2625025
312	312	STOCKTON	37.9577016	37.9577016
313	313	ORANGE	33.7500378	33.7500378
314	314	KALISPELL	48.202158	48.202158
315	315	PLEASANTON	37.6624312	37.6624312
316	316	NORMAN	35.2225717	35.2225717
317	317	RACINE	42.7260523	42.7260523
318	318	HAUPPAUGE	40.8239353	40.8239353
319	319	CEDAR HILL	32.5888072	32.5888072
320	320	BOOTHWYN	39.8309418	39.8309418
321	321	MALVERN	52.1159559	52.1159559
322	322	MOREHEAD CITY	34.7229391	34.7229391
323	323	WESTON	51.3471927	51.3471927
324	324	TWINSBURG	41.3125552	41.3125552
325	325	GLENDALE	34.1469416	34.1469416
326	326	ELLISVILLE	38.5946373	38.5946373
327	327	DOYLESTOWN	40.3100446	40.3100446
328	328	MANGONIA PARK	26.760341	26.760341
329	329	AUSTELL	33.8126059	33.8126059
330	330	DOVER	51.1251275	51.1251275
331	331	WESTCHESTER	41.1763139	41.1763139
332	332	WEBSTER	37.2895151	37.2895151
333	333	CHARLESTON	32.7876012	32.7876012
334	334	SISTERS	44.290948	44.290948
335	335	GILLETTE	44.290635	44.290635
336	336	GUNTERSVILLE	34.3581474	34.3581474
337	337	SILVER BAY	47.2942968	47.2942968
338	338	ROSEVILLE	38.7521235	38.7521235
339	339	LINCOLN	40.8088861	40.8088861
340	340	LISLE	45.2787444	45.2787444
341	341	ARLINGTON	32.7355816	32.7355816
342	342	MOORPARK	34.285558	34.285558
343	343	DULUTH	46.7729322	46.7729322
344	344	TORRANCE	33.8358492	33.8358492
345	345	BOULDER	40.0149856	40.0149856
346	346	ELGIN	42.03726	42.03726
347	347	HUNTLAND	35.0511972	35.0511972
348	348	AMSTERDAM	52.3727598	52.3727598
349	349	BAY SHORE	40.73214605	40.73214605
350	350	SECAUCUS	40.7899291	40.7899291
351	351	CLARKSVILLE	36.5277607	36.5277607
352	352	WHEELING	42.138889	42.138889
353	353	CHICKASAW	30.7637991	30.7637991
354	354	EL SEGUNDO	33.917028	33.917028
355	355	HENDERSON	32.182598	32.182598
356	356	MARTINEZ	38.0138934	38.0138934
357	357	PORT CHESTER	41.0017643	41.0017643
358	358	FREDERICKSBURG	38.3031837	38.3031837
359	359	HIGHLAND	57.5066357	57.5066357
360	360	ALBANY	41.000028	41.000028
361	361	ASTON	42.7744772	42.7744772
362	362	NEW CASTLE	40.9999202	40.9999202
363	363	SELLS	31.923222	31.923222
364	364	SALINAS	36.6744117	36.6744117
365	365	TRAVERSE CITY	44.7606441	44.7606441
366	366	DOBSON	32.4734032	32.4734032
367	367	SPARTANBURG	34.9498007	34.9498007
368	368	PASADENA	34.1476452	34.1476452
369	369	COLLEGEVILLE	40.1856597	40.1856597
370	370	HAYWARD	37.6688205	37.6688205
371	371	TULSA	36.1556805	36.1556805
372	372	JAMESTOWN	37.2104434	37.2104434
373	373	PEWAUKEE	43.0805651	43.0805651
374	374	PAULDING	41.1381051	41.1381051
375	375	CAPE GIRARDEAU	37.3034933	37.3034933
376	376	LITTLETON	39.613321	39.613321
377	377	WINDSOR MILL	39.3328346	39.3328346
378	378	ENCINITAS	33.0369867	33.0369867
379	379	OWINGS MILLS	39.41484355	39.41484355
380	380	LA VISTA	41.1832679	41.1832679
381	381	ALAMEDA	37.6090291	37.6090291
382	382	AMBLER	46.395412	46.395412
383	383	SPARTA	37.08114525	37.08114525
384	384	AUBURN	32.6405377	32.6405377
385	385	GRIFFIN	33.2467807	33.2467807
386	386	NIAGARA FALLS	43.08436	43.08436
387	387	WILSON	29.1589961	29.1589961
388	388	MIDDLETOWN	41.5623178	41.5623178
389	389	COLORADO SPRINGS	38.8339578	38.8339578
390	390	FAIRFIELD	38.2493581	38.2493581
391	391	CARSON	35.3636563	35.3636563
392	392	TINTON FALLS	40.2890734	40.2890734
393	393	LAWRENCE	38.9719384	38.9719384
394	394	HOOKSETT	43.096972	43.096972
395	395	NEW ALBANY	38.2856247	38.2856247
396	396	PIGEON FORGE	35.7884241	35.7884241
397	397	BROOKHAVEN	31.5790667	31.5790667
398	398	BELLPORT	40.7570429	40.7570429
399	399	AVON	48.4048867	48.4048867
400	400	EL CENTRO	32.792	32.792
401	401	INGLEWOOD	33.9562003	33.9562003
402	402	LEWISVILLE	33.046233	33.046233
403	403	AQUEBOGUE	40.9445438	40.9445438
404	404	PRINCETON	40.3492744	40.3492744
405	405	SPRING	30.0798826	30.0798826
406	406	POCATELLO	42.8620287	42.8620287
407	407	SARASOTA	27.3365805	27.3365805
408	408	SEATAC	47.4449086	47.4449086
409	409	MANHATTAN BEACH	33.8915985	33.8915985
410	410	BEVERLY HILLS	34.0696501	34.0696501
411	411	HORSHAM	51.0630273	51.0630273
412	412	TIGARD	45.4307473	45.4307473
413	413	EAST PROVIDENCE	41.8137116	41.8137116
414	414	HOLLISTER	36.8524545	36.8524545
415	415	ENDICOTT	40.0829726	40.0829726
416	416	LONG GROVE	41.6981153	41.6981153
417	417	MECHANIC FALLS	44.111747	44.111747
418	418	EUGENE	44.0505054	44.0505054
419	419	GREENSBORO	36.0726355	36.0726355
420	420	SPOKANE VALLEY	47.6571104	47.6571104
421	421	CARLSTADT	40.8403778	40.8403778
422	422	FOUNTAIN VALLEY	33.7038145	33.7038145
423	423	IDAHO FALLS	43.4887907	43.4887907
424	424	WEEDSPORT	43.048677	43.048677
425	425	ARDSLEY	41.0106531	41.0106531
426	426	APEX	35.7325352	35.7325352
427	427	LONG ISLAND CITY	40.7415095	40.7415095
428	428	PALO ALTO	37.4443293	37.4443293
429	429	BLOOMFIELD	40.7510398	40.7510398
430	430	GLEN ELLYN	41.8775293	41.8775293
431	431	HARRISONBURG	38.4493315	38.4493315
432	432	CREEDMOOR	30.0899368	30.0899368
433	433	SALEM	44.9391565	44.9391565
434	434	CHESTER	53.1908873	53.1908873
435	435	FAIRFAX	38.8462236	38.8462236
436	436	ALEXANDER	37.1801529	37.1801529
437	437	KIRKLAND	47.6859573	47.6859573
438	438	CHARLESTOWN	43.2387	43.2387
439	439	MONTGOMERY	32.3669656	32.3669656
440	440	FORT COLLINS	40.5508527	40.5508527
441	441	OPELOUSAS	30.5335302	30.5335302
442	442	FORT SMITH	35.3872218	35.3872218
443	443	SLIDELL	30.2751945	30.2751945
444	444	PALMVIEW	26.233406	26.233406
445	445	WESTPORT	41.1414855	41.1414855
446	446	COTATI	38.3266798	38.3266798
447	447	LOGAN TOWNSHIP	44.288768	44.288768
448	448	MURRAY	44.017855	44.017855
449	449	SOUTHAMPTON	50.9025349	50.9025349
450	450	ANCHORAGE	61.2163129	61.2163129
451	451	MARYVILLE	38.724575	38.724575
452	452	SUWANEE	34.0514898	34.0514898
453	453	EAST WINDSOR	41.9156316	41.9156316
454	454	WOOD DALE	41.9633625	41.9633625
455	455	PINEVILLE	36.7620301	36.7620301
456	456	LOWELL	42.6334247	42.6334247
457	457	AZLE	32.8975875	32.8975875
458	458	NEWPORT BEACH	33.6170092	33.6170092
459	459	SAPULPA	36.0005035	36.0005035
460	460	EL DORADO HILLS	38.67716825	38.67716825
461	461	PARK RIDGE	42.0112329	42.0112329
462	462	RICHMOND	37.5385087	37.5385087
463	463	WESTLAKE	32.991226	32.991226
464	464	RYE	46.8712641	46.8712641
465	465	STERLING	31.8151416	31.8151416
466	466	VAN BUREN	40.749202	40.749202
467	467	WILLIAMSTON	42.689151	42.689151
468	468	GARLAND	32.912624	32.912624
469	469	TARRYTOWN	41.065586	41.065586
470	470	DANVILLE	40.125222	40.125222
471	471	EAST HANOVER	40.8200998	40.8200998
472	472	WYNCOTE	40.0906988	40.0906988
473	473	LANHAM	38.965365	38.965365
474	474	BROOKLYN PARK	45.1004807	45.1004807
475	475	JERICHO	31.855991	31.855991
476	476	BOTHELL	47.7598697	47.7598697
477	477	FRANKLIN	33.2002659	33.2002659
478	478	BETHLEHEM	31.7043556	31.7043556
479	479	MOBILE	30.6943566	30.6943566
480	480	PLYMOUTH MEETING	40.102332	40.102332
481	481	FULLERTON	33.8739385	33.8739385
482	482	SAINT CHARLES	38.7946252	38.7946252
483	483	LIVINGSTON	40.8682487	40.8682487
484	484	NEWTON	30.8118989	30.8118989
485	485	PLAINSBORO	40.3334409	40.3334409
486	486	NEWARK	40.735657	40.735657
487	487	JURUPA VALLEY	33.9798472	33.9798472
488	488	SYRACUSE	43.0481221	43.0481221
489	489	WOODINVILLE	47.7545827	47.7545827
490	490	BRANCHBURG	40.5688245	40.5688245
491	491	PROVO	40.2337289	40.2337289
492	492	WINDOW ROCK	35.667165	35.667165
493	493	MOUNT VERNON	38.3172715	38.3172715
494	494	DURHAM	54.68504755	54.68504755
495	495	MORGAN HILL	37.130408	37.130408
496	496	ARMONK	41.1330485	41.1330485
497	497	ARDMORE	34.1742611	34.1742611
498	498	BRYAN	30.6743643	30.6743643
499	499	MERIDEN	41.5381535	41.5381535
500	500	WAYNE	38.4251958	38.4251958
501	501	COVINA	34.0877926	34.0877926
502	502	OVIEDO	43.3604218	43.3604218
503	503	KENDRICK	46.6140599	46.6140599
504	504	RONKONKOMA	40.80749485	40.80749485
505	505	LENEXA	38.9697458	38.9697458
506	506	MENTOR	41.6664781	41.6664781
507	507	HOLLAND	52.2288689	52.2288689
508	508	PLACENTIA	44.8476352	44.8476352
509	509	SANTA BARBARA	34.4221319	34.4221319
510	510	VICTORVILLE	34.5361067	34.5361067
511	511	LAKEWOOD	39.7085736	39.7085736
512	512	TOMBALL	30.0971621	30.0971621
513	513	POWAY	32.9628234	32.9628234
514	514	UNIVERSITY PARK	52.9387428	52.9387428
515	515	MOUND CITY	38.142773	38.142773
516	516	TEMPLE	31.098207	31.098207
517	517	GREAT NECK	40.8006567	40.8006567
518	518	RICHGROVE	35.79680565	35.79680565
519	519	PLYMOUTH	50.3712659	50.3712659
520	520	COSTA MESA	33.6633386	33.6633386
521	521	CEDAR PARK	30.5217116	30.5217116
522	522	AURORA	41.7571701	41.7571701
523	523	DAYTONA BEACH	29.2108147	29.2108147
524	524	BAYAMON	18.3990551	18.3990551
525	525	WAKEFIELD	53.6829541	53.6829541
526	526	NAPA	28.1083929	28.1083929
527	527	STAMFORD	41.0534302	41.0534302
528	528	WINSTON SALEM	36.0998131	36.0998131
529	529	HIALEAH	25.8670439	25.8670439
530	530	RANCHO CORDOVA	38.5890723	38.5890723
531	531	POLSON	47.6905295	47.6905295
532	532	HARRISON	32.5233959	32.5233959
533	533	SOUTH BEND	41.6833813	41.6833813
534	534	FAYETTEVILLE	36.0625843	36.0625843
535	535	MANSFIELD	40.75839	40.75839
536	536	FLOWER MOUND	33.0283854	33.0283854
537	537	GERMANTOWN	38.5536601	38.5536601
538	538	SAN JUAN CAPISTRANO	33.5016932	33.5016932
539	539	KNOXVILLE	35.9603948	35.9603948
540	540	SOMERVILLE	42.3875968	42.3875968
541	541	EMERYVILLE	37.8314089	37.8314089
542	542	SMITHFIELD	35.5085531	35.5085531
543	543	PERRIS	33.7825194	33.7825194
544	544	JESSUP	39.14700145	39.14700145
545	545	SAVANNAH	32.0809263	32.0809263
546	546	SCOTIA	56.7861112	56.7861112
547	547	PROSPECT	38.3459615	38.3459615
548	548	SAN BERNARDINO	34.8253019	34.8253019
549	549	BROOKFIELD	41.8228378	41.8228378
550	550	SALISBURY	51.0690613	51.0690613
551	551	HAMPTON	37.0300969	37.0300969
552	552	MENLO PARK	37.4519671	37.4519671
553	553	POMPANO BEACH	26.2378597	26.2378597
554	554	GILBERT	33.3527632	33.3527632
555	555	MATTHEWS	35.1159532	35.1159532
556	556	DES MOINES	41.5910323	41.5910323
557	557	GLADEWATER	32.5365333	32.5365333
558	558	READING	51.456659	51.456659
559	559	COEUR D ALENE	47.6742994	47.6742994
560	560	MIAMISBURG	39.6428362	39.6428362
561	561	VAN NUYS	34.1866193	34.1866193
562	562	VISALIA	36.3302284	36.3302284
563	563	TEXARKANA	33.44667445	33.44667445
564	564	MC COOK	48.65345795	48.65345795
565	565	CHEROKEE	31.8390826	31.8390826
566	566	MOUNT DORA	28.81874675	28.81874675
567	567	PIEDMONT	45.060735	45.060735
568	568	ROCKAWAY	40.9012101	40.9012101
569	569	WINTER PARK	28.5977707	28.5977707
570	570	SPARKS	39.5404679	39.5404679
571	571	SUNNYVALE	37.3688301	37.3688301
572	572	ROMULUS	42.2222614	42.2222614
573	573	HAMILTON	43.2560802	43.2560802
574	574	BREA	51.1386239	51.1386239
575	575	SAN JUAN	18.465299	18.465299
576	576	LEMOORE	36.3006495	36.3006495
577	577	THOUSAND OAKS	34.1877423	34.1877423
578	578	HUGHSON	37.5969577	37.5969577
579	579	PENSACOLA	30.421309	30.421309
580	580	MISSOULA	46.8701049	46.8701049
581	581	OAKDALE	44.985624	44.985624
582	582	CARY	35.7882893	35.7882893
583	583	WINDSOR	51.48375775	51.48375775
584	584	MCCLELLAN	39.5536938	39.5536938
585	585	CRESTVIEW	30.7621326	30.7621326
586	586	VIRGINIA BEACH	36.8529841	36.8529841
587	587	TACOMA	47.2495798	47.2495798
588	588	GLENDORA	34.1361187	34.1361187
589	589	GREEN BAY	44.5126379	44.5126379
590	590	KENNESAW	34.0234337	34.0234337
591	591	EASTON	40.6916081	40.6916081
592	592	FORT DEFIANCE	35.7531285	35.7531285
593	593	COMMERCE	34.002581	34.002581
594	594	BOWIE	33.4198886	33.4198886
595	595	DINUBA	36.5432837	36.5432837
596	596	GLEN ROCK	40.9628758	40.9628758
597	597	SANGER	33.3631706	33.3631706
598	598	MEDLEY	25.8406526	25.8406526
599	599	HOLLYWOOD	34.0980031	34.0980031
600	600	WEST SACRAMENTO	38.5804609	38.5804609
601	601	ELMER	39.9567801	39.9567801
602	602	EAST SYRACUSE	43.0653446	43.0653446
603	603	AVENTURA	25.9564812	25.9564812
604	604	VERNON HILLS	42.2204892	42.2204892
605	605	TOMS RIVER	39.9537359	39.9537359
606	606	SUNRISE	26.1471902	26.1471902
607	607	SOUTH COLTON	44.5106186	44.5106186
608	608	MADERA	37.1716264	37.1716264
609	609	ALPHARETTA	34.0709576	34.0709576
610	610	CLARK	39.3260541	39.3260541
611	611	MIDDLETON	43.0962919	43.0962919
612	612	CHADDS FORD	39.872027	39.872027
613	613	PHILLIPSBURG	40.6937099	40.6937099
614	614	REDLANDS	34.0550328	34.0550328
615	615	BURLEY	42.5357428	42.5357428
616	616	CLOVERDALE	38.8054624	38.8054624
617	617	SHOAL CREEK	34.4696911	34.4696911
618	618	FLUSHING	51.49433865	51.49433865
619	619	UNCASVILLE	41.4345426	41.4345426
620	620	MOUNT RAINIER	46.8521484	46.8521484
621	621	PARAMOUNT	33.898917	33.898917
622	622	KING OF PRUSSIA	40.09476245	40.09476245
623	623	CHICO	39.7284945	39.7284945
624	624	UNION CITY	37.5963232	37.5963232
625	625	CEDAR CITY	37.6774238	37.6774238
626	626	CARMEL	39.9788017	39.9788017
627	627	ROCK ISLAND	41.4411786	41.4411786
628	628	SAN RAMON	41.7253374	41.7253374
629	629	YORKTOWN	37.2356655	37.2356655
630	630	SUGAR LAND	29.6196787	29.6196787
631	631	LAFAYETTE	29.9978185	29.9978185
632	632	TINLEY PARK	41.5733669	41.5733669
633	633	LEXINGTON	38.0464066	38.0464066
634	634	EAU CLAIRE	44.811349	44.811349
635	635	CORPUS CHRISTI	27.7951482	27.7951482
636	636	PAWTUCKET	41.878711	41.878711
637	637	SAN CARLOS	37.504936	37.504936
638	638	CHULA VISTA	32.6400541	32.6400541
639	639	STRATFORD	52.1927803	52.1927803
640	640	SIKESTON	36.876719	36.876719
641	641	CHICKASHA	35.052565	35.052565
642	642	GALESBURG	40.9475652	40.9475652
643	643	GILROY	37.0065078	37.0065078
644	644	HARLAN	40.1617382	40.1617382
645	645	UNION	37.4616454	37.4616454
646	646	BATTLE CREEK	42.3192548	42.3192548
647	647	VALENCIA	39.4697065	39.4697065
648	648	DOTHAN	31.2237434	31.2237434
649	649	PUYALLUP	47.1849009	47.1849009
650	650	MAITLAND	-32.7316683	-32.7316683
651	651	POMONA	34.0553813	34.0553813
652	652	NORRIDGE	41.9633641	41.9633641
653	653	O FALLON	38.7910374	38.7910374
654	654	EIGHTY FOUR	40.1827171	40.1827171
655	655	HUNTINGDON VALLEY	40.1226101	40.1226101
656	656	COCOA	28.3553873	28.3553873
657	657	ALABASTER	33.2442813	33.2442813
658	658	MOUNT PLEASANT	33.1570582	33.1570582
659	659	CRANBURY	40.3099385	40.3099385
660	660	NEWBURYPORT	42.8125913	42.8125913
661	661	OKLAHOMA CITY	35.4729886	35.4729886
662	662	SHIPROCK	36.79196	36.79196
663	663	HASTINGS	50.8553888	50.8553888
664	664	GROVETOWN	33.4504157	33.4504157
665	665	METAIRIE	30.00185465	30.00185465
666	666	DEDHAM	41.9063152	41.9063152
667	667	KATY	29.7857853	29.7857853
668	668	BRIDGETON	38.7566055	38.7566055
669	669	CAMP SPRINGS	38.8020807	38.8020807
670	670	GLADSTONE	-23.8431724	-23.8431724
671	671	CORNWALL	50.4433489	50.4433489
672	672	CHOCTAW	35.4975654	35.4975654
673	673	BELLE CHASSE	29.844148	29.844148
674	674	SHERMAN OAKS	34.1508718	34.1508718
675	675	ELLICOTT CITY	39.27573585	39.27573585
676	676	BETHESDA	38.98127255	38.98127255
677	677	BOHEMIA	40.77024305	40.77024305
678	678	WALLKILL	41.4636977	41.4636977
679	679	YUBA CITY	39.1404477	39.1404477
680	680	HILLSBOROUGH	27.9184543	27.9184543
681	681	BRIMFIELD	40.838926	40.838926
682	682	CLEARWATER	27.9658533	27.9658533
683	683	MORRISTOWN	40.7970382	40.7970382
684	684	WATERFORD	52.2449628	52.2449628
685	685	KLAMATH FALLS	42.224867	42.224867
686	686	MACOMB	42.6741189	42.6741189
687	687	BLACKFOOT	43.190039	43.190039
688	688	GALVESTON	29.299328	29.299328
689	689	GRANITE CITY	57.1482429	57.1482429
690	690	EL MONTE	34.0751571	34.0751571
691	691	WEST CHICAGO	41.8847507	41.8847507
692	692	SHENANDOAH	40.7655468	40.7655468
693	693	BUCKLEY	40.5969794	40.5969794
694	694	ROCKY MOUNT	35.9423833	35.9423833
695	695	SANTA ANA	33.7494951	33.7494951
696	696	AUBURN HILLS	42.6875323	42.6875323
697	697	FRESNO	36.7394421	36.7394421
698	698	SAN LUIS OBISPO	35.3540209	35.3540209
699	699	NORTH PLATTE	41.1238873	41.1238873
700	700	VINELAND	39.4862777	39.4862777
701	701	ASHEBORO	35.7079146	35.7079146
702	702	MONTEBELLO	34.0159398	34.0159398
703	703	HANFORD	36.3274502	36.3274502
704	704	JEFFERSON HILLS	40.2911809	40.2911809
705	705	HIGH HILL	38.8783763	38.8783763
706	706	ROYAL OAK	42.4894801	42.4894801
707	707	NEWPORT NEWS	36.9775016	36.9775016
708	708	KEASBEY	40.5167718	40.5167718
709	709	NORTH SALT LAKE	40.8485564	40.8485564
710	710	GRANITE BAY	38.7632346	38.7632346
711	711	ROCKY HILL	41.6648216	41.6648216
712	712	JAMAICA	18.1850507	18.1850507
713	713	JORDAN	31.1667049	31.1667049
714	714	SANTA MARIA	-29.6860512	-29.6860512
715	715	HOPKINS	33.1368252	33.1368252
716	716	ROCKLIN	38.7907339	38.7907339
717	717	MICHIGAN CITY	41.7075394	41.7075394
718	718	DEVENS	42.5389512	42.5389512
719	719	ORANGEBURG	33.4918203	33.4918203
720	720	WHITTIER	33.9708782	33.9708782
721	721	OREM	40.2981599	40.2981599
722	722	NORWELL	42.1617681	42.1617681
723	723	BELOIT	42.5083272	42.5083272
724	724	MONTVALE	41.0467635	41.0467635
725	725	DAVENPORT	41.5235808	41.5235808
726	726	BRENTWOOD	37.9317766	37.9317766
727	727	LA MIRADA	33.9060971	33.9060971
728	728	CLEVELAND	41.4996562	41.4996562
729	729	RIDGELAND	32.4284761	32.4284761
730	730	ROSEMONT	41.9941334	41.9941334
731	731	SOUTH GATE	33.9463456	33.9463456
732	732	RIALTO	34.1064001	34.1064001
733	733	SEVERN	52.6421055	52.6421055
734	734	TONGANOXIE	39.1111605	39.1111605
735	735	BETHPAGE	40.7432812	40.7432812
736	736	EAST HARTFORD	41.7823216	41.7823216
737	737	AUGUSTA	33.4709714	33.4709714
738	738	OSSINING	41.1609095	41.1609095
739	739	NORMAN PARK	31.2690741	31.2690741
740	740	FENTON	38.5131989	38.5131989
741	741	BOSSIER CITY	32.5369356	32.5369356
742	742	VENTURA	34.4458248	34.4458248
743	743	PERTH AMBOY	40.5200187	40.5200187
744	744	MAPLE GROVE	45.0984983	45.0984983
745	745	TYSONS CORNER	38.916509	38.916509
746	746	FOREST	50.811795	50.811795
747	747	KAPOLEI	21.3340079	21.3340079
748	748	SAN RAFAEL	37.9735346	37.9735346
749	749	POUND RIDGE	41.2087066	41.2087066
750	750	CORONA	33.8752945	33.8752945
751	751	CHERITON	37.2895825	37.2895825
752	752	GREELEY	38.4570355	38.4570355
753	753	CERRITOS	33.8644291	33.8644291
754	754	KENNEWICK	46.2087066	46.2087066
755	755	ANNAPOLIS JUNCTION	38.9795752	38.9795752
756	756	SANFORD	35.4798757	35.4798757
757	757	SAN GABRIEL	34.0990733	34.0990733
758	758	LUXEMBURG	49.8158683	49.8158683
759	759	DANBURY	41.394817	41.394817
760	760	PLEASANTVILLE	41.3867741	41.3867741
761	761	VERSAILLES	48.8035403	48.8035403
762	762	VANDALIA	38.960601	38.960601
763	763	TEMPE	33.4255056	33.4255056
764	764	GLASGOW	55.8609825	55.8609825
765	765	PIQUA	40.1447732	40.1447732
766	766	HAINESPORT	39.9837234	39.9837234
767	767	CONCORD	43.207178	43.207178
768	768	NEWNAN	33.3806716	33.3806716
769	769	EUREKA	40.7906871	40.7906871
770	770	FARIBAULT	43.6647961	43.6647961
771	771	EATONTOWN	40.2962222	40.2962222
772	772	OAKLEY	37.9974219	37.9974219
773	773	PATERSON	40.9167654	40.9167654
774	774	ALAMOGORDO	32.9046474	32.9046474
775	775	TUCSON	32.2228765	32.2228765
776	776	GRAPEVINE	32.9337381	32.9337381
777	777	DOUSMAN	43.014176	43.014176
778	778	CHAMPAIGN	40.1164841	40.1164841
779	779	PLEASANT PRAIRIE	42.5269718	42.5269718
780	780	MOUNT LAUREL	39.9341907	39.9341907
781	781	TUSCALOOSA	33.2095614	33.2095614
782	782	HAGERSTOWN	39.6430455	39.6430455
783	783	ELKRIDGE	39.19386315	39.19386315
784	784	WEST NEW YORK	40.7856117	40.7856117
785	785	HANOVER	52.3744779	52.3744779
786	786	LEWISBURG	37.8017879	37.8017879
787	787	TUSTIN	33.7458511	33.7458511
788	788	FLORESVILLE	29.1335781	29.1335781
789	789	SAINT PAUL	44.9497487	44.9497487
790	790	WILLIAMSPORT	41.2493292	41.2493292
791	791	TRENTON	40.2170575	40.2170575
792	792	BURBANK	34.1816482	34.1816482
793	793	JASPER	30.7485258	30.7485258
794	794	NEDERLAND	52.2288689	52.2288689
795	795	LOMBARD	47.0783	47.0783
796	796	REDWOOD CITY	37.4863239	37.4863239
797	797	BASKING RIDGE	40.7064088	40.7064088
798	798	MERCER ISLAND	47.5602073	47.5602073
799	799	TALLAHASSEE	30.4380832	30.4380832
800	800	GOODFIELD	40.6297593	40.6297593
801	801	PLAINFIELD	41.6086711	41.6086711
802	802	FONTANA	34.0922335	34.0922335
803	803	ALGONA	43.0699663	43.0699663
804	804	EDEN PRAIRIE	44.8546856	44.8546856
805	805	PORTER	41.4457032	41.4457032
806	806	EARTH CITY	38.7689401	38.7689401
807	807	GREAT FALLS	47.5048851	47.5048851
808	808	PERIDOT	33.3010895	33.3010895
809	809	BELVIDERE	42.2579991	42.2579991
810	810	SEYMOUR	33.5942438	33.5942438
811	811	GALION	40.733795	40.733795
812	812	LUTHERVILLE	39.42362995	39.42362995
813	813	STERLING HEIGHTS	42.5803122	42.5803122
814	814	STRONGSVILLE	41.3144733	41.3144733
815	815	GRAYS KNOB	37.526518	37.526518
816	816	SANDY	40.5710454	40.5710454
817	817	MEADVILLE	41.641445	41.641445
818	818	PEARLAND	29.5639758	29.5639758
819	819	BRONX	40.8466508	40.8466508
820	820	HUNTINGTON STATION	40.84766075	40.84766075
821	821	WESTVILLE	45.5615392	45.5615392
822	822	GRAND PRAIRIE	32.7459645	32.7459645
823	823	MILAN	45.4641943	45.4641943
824	824	KETCHUM	43.680741	43.680741
825	825	BROUSSARD	30.1471506	30.1471506
826	826	MELVILLE	50.9307241	50.9307241
827	827	IRVINGTON	41.0350625	41.0350625
828	828	MASON	30.705029	30.705029
829	829	BREMERTON	47.5653663	47.5653663
830	830	WESTLAKE VILLAGE	34.1460234	34.1460234
831	831	MECHANICSBURG	40.2101972	40.2101972
832	832	BRUNDIDGE	31.7201615	31.7201615
833	833	PORTAGE	42.2011538	42.2011538
834	834	JUPITER	26.9342246	26.9342246
835	835	BOARDMAN	45.839855	45.839855
836	836	COLTON	34.0739016	34.0739016
837	837	PITTSFORD	43.7063656	43.7063656
838	838	LA PLACE	46.2747886	46.2747886
839	839	GENOA	44.40726	44.40726
840	840	PAULSBORO	39.830391	39.830391
841	841	NACOGDOCHES	31.5970503	31.5970503
842	842	MARQUETTE	46.4481521	46.4481521
843	843	CADIZ	36.5297438	36.5297438
844	844	SUMNER	37.2435967	37.2435967
845	845	FAIRHOPE	30.5231647	30.5231647
846	846	LACEY	47.0263876	47.0263876
847	847	ROANOKE	37.270973	37.270973
848	848	FOREST HILL	32.6720778	32.6720778
849	849	GRAND FORKS	47.9078244	47.9078244
850	850	DESOTO	27.190253	27.190253
851	851	MERRITT ISLAND	28.2662775	28.2662775
852	852	KELLOGG	41.7176794	41.7176794
853	853	ASHLAND	46.2062319	46.2062319
854	854	MIAMI BEACH	25.7929198	25.7929198
855	855	EAST DUNDEE	42.0989145	42.0989145
856	856	THOMASVILLE	35.8831786	35.8831786
857	857	EVANSVILLE	37.9747645	37.9747645
858	858	WALWORTH	45.4043853	45.4043853
859	859	MIAMI LAKES	25.9087056	25.9087056
860	860	PAOLI	40.040739	40.040739
861	861	LINDEN	50.6019526	50.6019526
862	862	SAINT PETERS	38.791612	38.791612
863	863	HALETHORPE	39.2398292	39.2398292
864	864	CAPITOL HEIGHTS	38.8849913	38.8849913
865	865	NEW LONDON	41.3556187	41.3556187
866	866	LAUREL	31.6940509	31.6940509
867	867	DERWOOD	39.11733	39.11733
868	868	ADRIAN	41.8975152	41.8975152
869	869	BOULDER CITY	35.9787638	35.9787638
870	870	NORTH CANTON	40.875891	40.875891
871	871	KEWANNA	41.0186527	41.0186527
872	872	MORGANVILLE	39.466386	39.466386
873	873	MIROMAR LAKES	26.4768272	26.4768272
874	874	ASBURY PARK	40.2203907	40.2203907
875	875	BONITA SPRINGS	26.3618039	26.3618039
876	876	BALDWINSVILLE	43.158679	43.158679
877	877	AMANDA	39.649508	39.649508
878	878	HESPERIA	34.4263886	34.4263886
879	879	ODESSA	46.4843023	46.4843023
880	880	DADE CITY	28.3647248	28.3647248
881	881	MOUNTAIN VIEW	37.3893889	37.3893889
882	882	NORTH MANKATO	44.1732916	44.1732916
883	883	CHESAPEAKE	36.7183708	36.7183708
884	884	LITHONIA	33.7123305	33.7123305
885	885	CANONSBURG	40.2625702	40.2625702
886	886	SHORT HILLS	40.7478786	40.7478786
887	887	DEERFIELD	42.1711365	42.1711365
888	888	SAVOY	45.49489515	45.49489515
889	889	GREEN COVE SPRINGS	29.98338515	29.98338515
890	890	DEER PARK	42.1608585	42.1608585
891	891	MARIETTA	33.9528472	33.9528472
892	892	MELROSE PARK	41.900299	41.900299
893	893	THERMAL	33.6403013	33.6403013
894	894	MOSS POINT	30.4115881	30.4115881
895	895	BAYTOWN	29.7355047	29.7355047
896	896	KAHULUI	20.8747708	20.8747708
897	897	COPPELL	32.9552598	32.9552598
898	898	DONNELSVILLE	39.9183927	39.9183927
899	899	MELBOURNE	-37.8142176	-37.8142176
900	900	NEW PRAGUE	44.5433331	44.5433331
901	901	NORTH MIAMI	25.8900949	25.8900949
902	902	ROLLA	13.84850035	13.84850035
903	903	TONAWANDA	43.020679	43.020679
904	904	CHANTILLY	49.1931736	49.1931736
905	905	GRESHAM	45.4997475	45.4997475
906	906	GROVE CITY	45.1505185	45.1505185
907	907	CAMDEN	39.9448402	39.9448402
908	908	HUBBARD	47.1138266	47.1138266
909	909	EPHRATA	40.1799111	40.1799111
910	910	CHAGRIN FALLS	41.436589	41.436589
911	911	MIDLAND	31.83688	31.83688
912	912	ANN ARBOR	42.2681569	42.2681569
913	913	NORWALK	41.1175966	41.1175966
914	914	BRADENTON	27.4989278	27.4989278
915	915	TOLEDO	39.8560679	39.8560679
916	916	LAKE WORTH	32.8048507	32.8048507
917	917	BUDA	47.4938673	47.4938673
918	918	WARRENVILLE	41.8179303	41.8179303
919	919	HONOLULU	21.2890997	21.2890997
920	920	NORTH BRUNSWICK	53.3832177	53.3832177
921	921	ENCINO	34.1591324	34.1591324
922	922	ASHBURN	39.0300191	39.0300191
923	923	FREEHOLD	40.2601096	40.2601096
924	924	RED BUD	38.2117173	38.2117173
925	925	TIPP CITY	39.9583892	39.9583892
926	926	SOUTH PLAINFIELD	40.5792701	40.5792701
927	927	EAGAN	44.818173	44.818173
928	928	SAINT AUGUSTINE	29.8946952	29.8946952
929	929	WALLINGTON	40.8531553	40.8531553
930	930	BARAGA	46.6354348	46.6354348
931	931	AUBURNDALE	28.0652975	28.0652975
932	932	NOBLESVILLE	40.0455918	40.0455918
933	933	NORTH RICHLAND HILLS	32.8342952	32.8342952
934	934	KEENES	38.3402177	38.3402177
935	935	ALTON	38.8908583	38.8908583
936	936	BELCOURT	48.402312	48.402312
937	937	WAPATO	46.4476278	46.4476278
938	938	TYLER	30.7563939	30.7563939
939	939	THE WOODLANDS	30.1734194	30.1734194
940	940	JULIAN	33.073965	33.073965
941	941	WINTER SPRINGS	28.693322	28.693322
942	942	UNION GROVE	32.579757	32.579757
943	943	BEAUMONT	30.0860459	30.0860459
944	944	BELTSVILLE	39.0299081	39.0299081
945	945	MUSKEGO	42.905848	42.905848
946	946	SELMA	32.4078632	32.4078632
947	947	SOUTHLAKE	32.9412363	32.9412363
948	948	FOOTHILL RANCH	37.7501183	37.7501183
949	949	BRYANT	40.4661513	40.4661513
950	950	PARK HILLS	39.0714491	39.0714491
951	951	NOVATO	38.1061979	38.1061979
952	952	WOODBURN	45.143731	45.143731
953	953	MEDFORD	42.4184296	42.4184296
954	954	SUN VALLEY	33.670169	33.670169
955	955	WILLOUGHBY	41.6397696	41.6397696
956	956	PRESCOTT	34.5399962	34.5399962
957	957	CONGERS	41.14595945	41.14595945
958	958	MONTEREY	36.2231079	36.2231079
959	959	NEWBURY	51.4020243	51.4020243
960	960	ADA	38.8398935	38.8398935
961	961	WESTBOROUGH	42.2694308	42.2694308
962	962	WEBSTER CITY	42.4695666	42.4695666
963	963	MULVANE	37.4780814	37.4780814
964	964	SHELBY	31.7716364	31.7716364
965	965	LATROBE	40.317287	40.317287
966	966	BEND	44.0581728	44.0581728
967	967	WALNUT	34.0202894	34.0202894
968	968	CORAOPOLIS	40.5184013	40.5184013
969	969	CRESSON	32.5305926	32.5305926
970	970	WIXOM	42.5247729	42.5247729
971	971	HAMEL	50.2806494	50.2806494
972	972	NORTHWOOD	43.4441245	43.4441245
973	973	HUNTINGTON BEACH	33.6783336	33.6783336
974	974	ROUND ROCK	30.5085915	30.5085915
975	975	LOS ALAMITOS	33.8038865	33.8038865
976	976	HENRICO	37.4957023	37.4957023
977	977	OVERLAND PARK	38.9742502	38.9742502
978	978	NORTHPORT	46.7918564	46.7918564
979	979	TOWSON	39.39645905	39.39645905
980	980	SOUTH SAINT PAUL	44.8938832	44.8938832
981	981	LIBERTY CENTER	41.442045	41.442045
982	982	ELLICOTTVILLE	42.2750669	42.2750669
983	983	PARIS	48.8588897	48.8588897
984	984	SCHAUMBURG	42.0333608	42.0333608
985	985	BLAUVELT	41.069631	41.069631
986	986	SIMI VALLEY	34.2677404	34.2677404
987	987	FIREBAUGH	36.8588376	36.8588376
988	988	GRETNA	29.9146493	29.9146493
989	989	KENOSHA	42.5846773	42.5846773
990	990	ELK GROVE VILLAGE	42.0041236	42.0041236
991	991	WOODSTOCK	42.0410578	42.0410578
992	992	FORT WAYNE	41.0799898	41.0799898
993	993	GURNEE	42.3702996	42.3702996
994	994	SANTA CLARITA	34.3916641	34.3916641
995	995	TOPEKA	39.049011	39.049011
996	996	SANTA FE	-30.3154739	-30.3154739
997	997	BLOOMINGTON	39.1670396	39.1670396
998	998	NEW STANTON	40.2192258	40.2192258
999	999	ZANESVILLE	39.9403453	39.9403453
1000	1000	LEWIS CENTER	40.1983958	40.1983958
1001	1001	SHAWNEE	39.0273676	39.0273676
1002	1002	BOISE	43.6166163	43.6166163
1003	1003	OCALA	29.1871986	29.1871986
1004	1004	BUFORD	34.1206564	34.1206564
1005	1005	PHARR	26.1947962	26.1947962
1006	1006	FEASTERVILLE TREVOSE	40.1513276	40.1513276
1007	1007	ENTERPRISE	31.3151708	31.3151708
1008	1008	SAN MARCOS	29.8826436	29.8826436
1009	1009	SAINT IGNATIUS	3.3571696	3.3571696
1010	1010	ORMOND BEACH	29.2854132	29.2854132
1011	1011	HAWTHORNE	33.9188589	33.9188589
1012	1012	PURCHASE	41.0409305	41.0409305
1013	1013	FOLCROFT	39.890946	39.890946
1014	1014	FISHERS	39.9555928	39.9555928
1015	1015	CRANBERRY TOWNSHIP	40.7099343	40.7099343
1016	1016	WOODWARD	41.8569299	41.8569299
1017	1017	EDISON	40.538457	40.538457
1018	1018	THEODORE	30.547295	30.547295
1019	1019	ELMHURST	41.8994745	41.8994745
1020	1020	HOT SPRINGS	34.5038393	34.5038393
1021	1021	SEWELL	51.8958799	51.8958799
1022	1022	LEBANON	33.8750629	33.8750629
1023	1023	PEACHTREE CORNERS	33.9701009	33.9701009
1024	1024	LADSON	32.9857275	32.9857275
1025	1025	BUELLTON	34.6134727	34.6134727
1026	1026	CHEVY CHASE	38.9825225	38.9825225
1027	1027	FARMINGTON	44.6402434	44.6402434
1028	1028	TRINITY	31.0834452	31.0834452
1029	1029	SPRING LAKE	53.5193105	53.5193105
1030	1030	PEARL	32.2735792	32.2735792
1031	1031	EAST GRANBY	41.9412081	41.9412081
1032	1032	SHEBOYGAN	43.7508284	43.7508284
1033	1033	SAN PEDRO	-24.25	-24.25
1034	1034	MILLVILLE	42.6999921	42.6999921
1035	1035	LIVONIA	42.36837	42.36837
1036	1036	LOGAN	40.1075089	40.1075089
1037	1037	FINDLAY	41.0413873	41.0413873
1038	1038	CAPE CORAL	26.6059432	26.6059432
1039	1039	FAIRVIEW	56.073947	56.073947
1040	1040	PARAMUS	40.9452911	40.9452911
1041	1041	CORINTH	37.9386936	37.9386936
1042	1042	RIO RANCHO	35.269381	35.269381
1043	1043	AGOURA HILLS	34.14791	34.14791
1044	1044	MAYWOOD	33.9866807	33.9866807
1045	1045	STURTEVANT	42.6980749	42.6980749
1046	1046	MOORE	35.8156121	35.8156121
1047	1047	SUFFERN	41.1151372	41.1151372
1048	1048	ISELIN	40.569335	40.569335
1049	1049	WOMELSDORF	38.8964941	38.8964941
1050	1050	JEFFERSON CITY	38.577359	38.577359
1051	1051	NEW CITY	41.1499825	41.1499825
1052	1052	HATFIELD	51.7634675	51.7634675
1053	1053	HILO	19.7073734	19.7073734
1054	1054	MONTGOMERYVILLE	40.2498234	40.2498234
1055	1055	HUMBLE	29.9988312	29.9988312
1056	1056	FORT MYERS	26.640628	26.640628
1057	1057	LA PALMA	28.6552318	28.6552318
1058	1058	WILSONVILLE	45.3099218	45.3099218
1059	1059	SANDWICH	51.2752527	51.2752527
1060	1060	COLLEGE POINT	40.7876014	40.7876014
1061	1061	LEES SUMMIT	40.7456065	40.7456065
1062	1062	ENID	36.3967623	36.3967623
1063	1063	EDMOND	35.6571367	35.6571367
1064	1064	BEAVERTON	45.4871723	45.4871723
1065	1065	EDINA	44.8897027	44.8897027
1066	1066	ELMIRA	42.0897965	42.0897965
1067	1067	BAXLEY	31.7782514	31.7782514
1068	1068	PENDLETON	45.672075	45.672075
1069	1069	ASHTABULA	41.865054	41.865054
1070	1070	PIKESVILLE	39.385227	39.385227
1071	1071	WAUNAKEE	43.1919373	43.1919373
1072	1072	MARK	48.5914169	48.5914169
1073	1073	BALDWIN PARK	34.08092715	34.08092715
1074	1074	GREENWOOD VILLAGE	39.6172101	39.6172101
1075	1075	BRIDGEPORT	41.1670412	41.1670412
1076	1076	BRISBANE	-27.4689682	-27.4689682
1077	1077	CLARKSDALE	34.2006479	34.2006479
1078	1078	DALTON	46.173849	46.173849
1079	1079	GOSHEN	41.5824086	41.5824086
1080	1080	STONE MOUNTAIN	33.8062166	33.8062166
1081	1081	ACWORTH	34.0659329	34.0659329
1082	1082	WAUCONDA	42.2589122	42.2589122
1083	1083	WEST MONROE	32.5184775	32.5184775
1084	1084	KINGMAN	37.5420937	37.5420937
1085	1085	ATHENS	37.9839412	37.9839412
1086	1086	SCHILLER PARK	41.9558637	41.9558637
1087	1087	WEST ORANGE	40.7987113	40.7987113
1088	1088	FLORENCE	43.7698712	43.7698712
1089	1089	CORAM	40.87941295	40.87941295
1090	1090	WEST HAVEN	41.2706527	41.2706527
1091	1091	LAHAINA	20.88717735	20.88717735
1092	1092	CALABASAS	34.1446643	34.1446643
1093	1093	DES PLAINES	42.0415823	42.0415823
1094	1094	NORTH BEND	47.4959464	47.4959464
1095	1095	NILES	42.0289319	42.0289319
1096	1096	LOS ALAMOS	35.8935335	35.8935335
1097	1097	SACATON	33.086806	33.086806
1098	1098	OAKBROOK TERRACE	41.8500302	41.8500302
1099	1099	TARZANA	34.1689295	34.1689295
1100	1100	MARSHALL	41.0324537	41.0324537
1101	1101	LAKE FOREST	42.2586342	42.2586342
1102	1102	GALLATIN	37.7509507	37.7509507
1103	1103	MARION	32.7931661	32.7931661
1104	1104	MANORVILLE	40.7879651	40.7879651
1105	1105	CONSHOHOCKEN	40.0792766	40.0792766
1106	1106	LINTHICUM HEIGHTS	39.2039094	39.2039094
1107	1107	PEACHTREE CITY	33.3967829	33.3967829
1108	1108	BUENA PARK	33.870413	33.870413
1109	1109	MOUNT AIRY	40.0640001	40.0640001
1110	1110	MANALAPAN	26.5692364	26.5692364
1111	1111	SCHERTZ	29.5641617	29.5641617
1112	1112	HALTOM CITY	32.7995738	32.7995738
1113	1113	REDFORD	55.9060194	55.9060194
1114	1114	WOODBRIDGE	40.5576045	40.5576045
1115	1115	HALEDON	40.935654	40.935654
1116	1116	HAZEL PARK	42.4620142	42.4620142
1117	1117	YUMA	32.665135	32.665135
1118	1118	ITHACA	42.437072	42.437072
1119	1119	MOGADORE	41.050775	41.050775
1120	1120	HILLSIDE	41.8778084	41.8778084
1121	1121	MCALESTER	34.9334981	34.9334981
1122	1122	BOONTON	40.9025989	40.9025989
1123	1123	ALVIN	29.4238472	29.4238472
1124	1124	MCLEAN	40.4631789	40.4631789
1125	1125	MCPHERSON	38.3659015	38.3659015
1126	1126	RESTON	38.955696	38.955696
1127	1127	WOODLAND PARK	38.9938016	38.9938016
1128	1128	SKOKIE	42.0333694	42.0333694
1129	1129	COWICHE	46.6698469	46.6698469
1130	1130	MOUNT JULIET	36.200055	36.200055
1131	1131	MABEN	37.6387248	37.6387248
1132	1132	ROME	41.8933203	41.8933203
1133	1133	MANTACHIE	34.3242707	34.3242707
1134	1134	NORTH LITTLE ROCK	34.769536	34.769536
1135	1135	FLORHAM PARK	40.7881643	40.7881643
1136	1136	CASA GRANDE	32.8795022	32.8795022
1137	1137	MODESTO	37.6390972	37.6390972
1138	1138	BRIDGEWATER	41.9903787	41.9903787
1139	1139	HEALDTON	34.2331475	34.2331475
1140	1140	JACKSON CENTER	40.4394935	40.4394935
1141	1141	UPPER MARLBORO	38.8139804	38.8139804
1142	1142	SPRINGBORO	39.5522815	39.5522815
1143	1143	RESERVE	39.976148	39.976148
1144	1144	CHICOPEE	42.1487691	42.1487691
1145	1145	LOCUST VALLEY	40.87773	40.87773
1146	1146	WINTER GARDEN	28.5502685	28.5502685
1147	1147	CLEBURNE	35.5298937	35.5298937
1148	1148	WEATHERFORD	32.7589648	32.7589648
1149	1149	VALDOSTA	30.8327022	30.8327022
1150	1150	RIVIERA BEACH	26.784343	26.784343
1151	1151	LANSING	42.7337712	42.7337712
1152	1152	BRIGHTON	50.8389149	50.8389149
1153	1153	ROCHESTER HILLS	42.6583661	42.6583661
1154	1154	HONOKAA	20.078505	20.078505
1155	1155	WOODBURY	42.3775361	42.3775361
1156	1156	LONGWOOD	28.7012172	28.7012172
1157	1157	NEW HAVEN	41.3082138	41.3082138
1158	1158	MOUNDRIDGE	38.203065	38.203065
1159	1159	BYRON CENTER	42.81928795	42.81928795
1160	1160	GRANADA HILLS	34.2661558	34.2661558
1161	1161	SOUTH EL MONTE	34.0519548	34.0519548
1162	1162	MANASSAS	38.7509488	38.7509488
1163	1163	GRAFTON	-29.69125	-29.69125
1164	1164	RANCHO MIRAGE	33.770859	33.770859
1165	1165	PIPERTON	35.0450914	35.0450914
1166	1166	BOERNE	29.7946641	29.7946641
1167	1167	VINITA	49.2320162	49.2320162
1168	1168	HONEY BROOK	40.0942664	40.0942664
1169	1169	PROSSER	46.2067583	46.2067583
1170	1170	CASEYVILLE	38.6367162	38.6367162
1171	1171	LIMA	-12.0621065	-12.0621065
1172	1172	PLEASANT GROVE	33.4909405	33.4909405
1173	1173	BUCHANAN	39.6733203	39.6733203
1174	1174	ROCKMART	34.0026005	34.0026005
1175	1175	BATAVIA	-6.1753942	-6.1753942
1176	1176	HAMMOND	41.5833658	41.5833658
1177	1177	LEESBURG	28.810823	28.810823
1178	1178	SAVAGE	44.7779041	44.7779041
1179	1179	COCKEYSVILLE	39.4837588	39.4837588
1180	1180	OPA LOCKA	25.9023168	25.9023168
1181	1181	COHOES	42.7742446	42.7742446
1182	1182	CANOGA PARK	34.2011078	34.2011078
1183	1183	WESTMINSTER	51.5004439	51.5004439
1184	1184	SOLVANG	34.584807	34.584807
1185	1185	BERKELEY	37.8753497	37.8753497
1186	1186	KALAMAZOO	42.291707	42.291707
1187	1187	BROWNSTOWN TWP	42.1529228	42.1529228
1188	1188	RIDGEFIELD	41.2814842	41.2814842
1189	1189	MAYFIELD HEIGHTS	41.5192189	41.5192189
1190	1190	LA VERNE	34.1008426	34.1008426
1191	1191	BULVERDE	29.7438332	29.7438332
1192	1192	APOPKA	28.6779683	28.6779683
1193	1193	CICERO	41.8455398	41.8455398
1194	1194	WALPOLE	42.1417653	42.1417653
1195	1195	ORO GRANDE	34.5988813	34.5988813
1196	1196	PARKVILLE	39.3868522	39.3868522
1197	1197	KENTON	51.5815255	51.5815255
1198	1198	ECLECTIC	32.6354093	32.6354093
1199	1199	HARTVILLE	37.2508838	37.2508838
1200	1200	PALMDALE	34.5793131	34.5793131
1201	1201	PITTSBURGH	40.4416941	40.4416941
1202	1202	MUSKEGON	43.2484584	43.2484584
1203	1203	HUNTINGTON	38.4192496	38.4192496
1204	1204	HOLTVILLE	32.8139211	32.8139211
1205	1205	RAPID CITY	44.0869329	44.0869329
1206	1206	FLOWOOD	32.3092861	32.3092861
1207	1207	HARAHAN	29.9404826	29.9404826
1208	1208	ZEARING	42.1612414	42.1612414
1209	1209	BENTON HARBOR	42.1167065	42.1167065
1210	1210	CHANDLER	33.3061605	33.3061605
1211	1211	WEST DES MOINES	41.5644476	41.5644476
1212	1212	ANOKA	45.2710195	45.2710195
1213	1213	WARWICK	52.2814519	52.2814519
1214	1214	PASCO	28.2996183	28.2996183
1215	1215	CENTREVILLE	38.84487	38.84487
1216	1216	NORTH SIOUX CITY	42.5246831	42.5246831
1217	1217	PLANTSVILLE	41.583709	41.583709
1218	1218	MARTINSVILLE	36.6915262	36.6915262
1219	1219	HOFFMAN ESTATES	42.0427256	42.0427256
1220	1220	WICHITA FALLS	33.9137085	33.9137085
1221	1221	DELAND	29.0283213	29.0283213
1222	1222	BAY CITY	43.5944677	43.5944677
1223	1223	SKIATOOK	36.3684245	36.3684245
1224	1224	GRAND HAVEN	43.0630734	43.0630734
1225	1225	PRYOR	36.3084275	36.3084275
1226	1226	CHATTANOOGA	35.0457219	35.0457219
1227	1227	CHESTERTOWN	39.2089986	39.2089986
1228	1228	MILL VALLEY	37.9060368	37.9060368
1229	1229	LUTZ	43.4367	43.4367
1230	1230	LIBERTY LAKE	47.6681145	47.6681145
1231	1231	MEDINA	29.2836281	29.2836281
1232	1232	HOOD RIVER	45.7087902	45.7087902
1233	1233	RANCHO DOMINGUEZ	33.8595564	33.8595564
1234	1234	LAKE WORTH BEACH	26.6159698	26.6159698
1235	1235	PONTE VEDRA	42.4318876	42.4318876
1236	1236	DENTON	33.1838787	33.1838787
1237	1237	DURANT	41.5997498	41.5997498
1238	1238	BETTENDORF	47.5852476	47.5852476
1239	1239	CITRONELLE	31.0937841	31.0937841
1240	1240	SHREVEPORT	32.5221828	32.5221828
1241	1241	LAWTON	34.6086854	34.6086854
1242	1242	CATOOSA	36.188987	36.188987
1243	1243	PRICHARD	30.7387998	30.7387998
1244	1244	LAKE SAINT LOUIS	38.77710155	38.77710155
1245	1245	ESTERO	26.4381474	26.4381474
1246	1246	HAVERFORD	40.0131672	40.0131672
1247	1247	MANNING	41.9092293	41.9092293
1248	1248	BLUE EARTH	44.0109722	44.0109722
1249	1249	BETHANY	40.2683344	40.2683344
1250	1250	STANTON	37.5691072	37.5691072
1251	1251	LYNNWOOD	47.8278656	47.8278656
1252	1252	GREENEVILLE	36.1631575	36.1631575
1253	1253	SALINA	38.8402805	38.8402805
1254	1254	NOWATA	36.700645	36.700645
1255	1255	LONGDALE	54.4400129	54.4400129
1256	1256	KEARNEY	40.4906216	40.4906216
1257	1257	BLAINE	41.9195837	41.9195837
1258	1258	FRONTENAC	44.7338253	44.7338253
1259	1259	AGAWAM	42.066186	42.066186
1260	1260	CATANO	18.4410233	18.4410233
1261	1261	WEST BABYLON	40.7126585	40.7126585
1262	1262	ANDERSON	31.7819242	31.7819242
1263	1263	HUNT VALLEY	39.4922608	39.4922608
1264	1264	NORTH HOLLYWOOD	34.1729044	34.1729044
1265	1265	HOLBROOK	34.9037063	34.9037063
1266	1266	CENTENNIAL	39.579155	39.579155
1267	1267	GALENA	42.4157304	42.4157304
1268	1268	HAZARD	37.2489635	37.2489635
1269	1269	WHITE BLUFF	36.1075593	36.1075593
1270	1270	STANFORD	37.4265407	37.4265407
1271	1271	WOODBINE	41.7371441	41.7371441
1272	1272	BATON ROUGE	30.4459596	30.4459596
1273	1273	PICO RIVERA	33.9830688	33.9830688
1274	1274	LEAWOOD	38.966673	38.966673
1275	1275	MARINETTE	45.0999594	45.0999594
1276	1276	DODGE CITY	37.7527982	37.7527982
1277	1277	NEW HYDE PARK	40.7352157	40.7352157
1278	1278	WYLIE	33.0151201	33.0151201
1279	1279	POST FALLS	47.7110106	47.7110106
1280	1280	TELFORD	52.6780419	52.6780419
1281	1281	GOODYEAR	33.4353672	33.4353672
1282	1282	WILLIMANTIC	41.713125	41.713125
1283	1283	PLEASANT HILL	37.9479786	37.9479786
1284	1284	MEDFIELD	42.1865609	42.1865609
1285	1285	HARVEY	38.0352315	38.0352315
1286	1286	GREER	34.9381361	34.9381361
1287	1287	YONKERS	40.9312099	40.9312099
1288	1288	VAN BUREN TWP	42.2207982	42.2207982
1289	1289	BERKELEY HEIGHTS	40.6834349	40.6834349
1290	1290	WAIPAHU	21.3866667	21.3866667
1291	1291	WELLINGTON	-41.2887953	-41.2887953
1292	1292	TOTOWA	40.9050988	40.9050988
1293	1293	CORBIN	36.9486986	36.9486986
1294	1294	SAN CLEMENTE	39.4037093	39.4037093
1295	1295	MONTEREY PARK	34.051522	34.051522
1296	1296	GOLDEN	39.7546349	39.7546349
1297	1297	MOUNT KISCO	41.2042616	41.2042616
1298	1298	SAFETY HARBOR	27.9908529	27.9908529
1299	1299	SOCIAL CIRCLE	33.6561723	33.6561723
1300	1300	AIRMONT	41.1009293	41.1009293
1301	1301	DOWNEY	33.9404441	33.9404441
1302	1302	EVERETT	47.9673056	47.9673056
1303	1303	BROWNSBORO	32.3023706	32.3023706
1304	1304	HIGHLAND PARK	32.831563	32.831563
1305	1305	LONGVIEW	32.5007031	32.5007031
1306	1306	HASBROUCK HEIGHTS	40.8579293	40.8579293
1307	1307	PELL CITY	33.5862149	33.5862149
1308	1308	VERO BEACH	27.6387163	27.6387163
1309	1309	WEST COLUMBIA	29.1438582	29.1438582
1310	1310	BREWTON	31.1051779	31.1051779
1311	1311	NATIONAL CITY	32.6781085	32.6781085
1312	1312	KODAK	35.9745323	35.9745323
1313	1313	DEWITT	29.0931328	29.0931328
1314	1314	ASTORIA	46.187885	46.187885
1315	1315	TWIN FALLS	42.5704456	42.5704456
1316	1316	PIERRE	44.3683644	44.3683644
1317	1317	BENICIA	38.049365	38.049365
1318	1318	HIGH POINT	35.9556924	35.9556924
1319	1319	MARRIOTTSVILLE	39.3501959	39.3501959
1320	1320	BOWDON	33.5378885	33.5378885
1321	1321	AMERICUS	32.0723862	32.0723862
1322	1322	BURNSVILLE	44.7670567	44.7670567
1323	1323	FRANKLIN PARK	41.9353084	41.9353084
1324	1324	BAINBRIDGE	30.9038252	30.9038252
1325	1325	BOZEMAN	45.6794293	45.6794293
1326	1326	MAHANOY CITY	40.8125881	40.8125881
1327	1327	BIXBY	35.9420431	35.9420431
1328	1328	ALDA	40.8701915	40.8701915
1329	1329	NORTHBROOK	42.128704	42.128704
1330	1330	WEST POINT	33.6076186	33.6076186
1331	1331	MANLY	-33.7971937	-33.7971937
1332	1332	KILLEEN	31.1171441	31.1171441
1333	1333	BLACKWELL	32.0869699	32.0869699
1334	1334	URBANA	40.1117174	40.1117174
1335	1335	WARRENDALE	40.6534001	40.6534001
1336	1336	LAKE MARY	28.756618	28.756618
1337	1337	FALLS CHURCH	38.882334	38.882334
1338	1338	WAUKEGAN	42.3636331	42.3636331
1339	1339	GEORGETOWN	6.8137426	6.8137426
1340	1340	CAIRO	30.0443879	30.0443879
1341	1341	ROHNERT PARK	38.3396367	38.3396367
1342	1342	MENANDS	42.6920233	42.6920233
1343	1343	GRUNDY CENTER	42.3616501	42.3616501
1344	1344	INDIANOLA	33.4509513	33.4509513
1345	1345	BAD AXE	43.801959	43.801959
1346	1346	SOLEDAD	36.4198255	36.4198255
1347	1347	CALEDONIA	42.369463	42.369463
1348	1348	MORGANTOWN	39.6296809	39.6296809
1349	1349	MIDDLEBURG HEIGHTS	41.3614401	41.3614401
1350	1350	MUNCIE	40.1936892	40.1936892
1351	1351	SANTA CRUZ	28.469648	28.469648
1352	1352	CUBA	23.0131338	23.0131338
1353	1353	MUSKOGEE	35.6630196	35.6630196
1354	1354	OKARCHE	35.7258795	35.7258795
1355	1355	KINDRED	46.648578	46.648578
1356	1356	GARDEN CITY PARK	40.74368425	40.74368425
1357	1357	RIVERTON	40.6870011	40.6870011
1358	1358	MACON	32.8406946	32.8406946
1359	1359	NEW BRUNSWICK	46.2555734	46.2555734
1360	1360	CORTE MADERA	37.9254806	37.9254806
1361	1361	FARMERS BRANCH	32.9265137	32.9265137
1362	1362	CONROE	30.3118769	30.3118769
1363	1363	NOVI	42.48059	42.48059
1364	1364	WELCOME	28.6723623	28.6723623
1365	1365	FULTON	40.4714305	40.4714305
1366	1366	HARTSVILLE	34.3740431	34.3740431
1367	1367	RANGER	32.4693688	32.4693688
1368	1368	BELLEVILLE	48.8176714	48.8176714
1369	1369	ARCATA	40.866517	40.866517
1370	1370	RAMSEY	45.0165728	45.0165728
1371	1371	COKATO	45.075043	45.075043
1372	1372	PROVIDENCE FORGE	37.4418131	37.4418131
1373	1373	FORT PIERCE	27.4467056	27.4467056
1374	1374	TITUSVILLE	28.6122187	28.6122187
1375	1375	LINCOLNSHIRE	53.1823034	53.1823034
1376	1376	PIPERSVILLE	40.4260533	40.4260533
1377	1377	RUSSELLVILLE	35.2784173	35.2784173
1378	1378	ELKHART	41.6819935	41.6819935
1379	1379	GREENSBURG	40.3014581	40.3014581
1380	1380	HYATTSVILLE	38.9529442	38.9529442
1381	1381	RAMONA	38.59766405	38.59766405
1382	1382	TIFTON	31.4549719	31.4549719
1383	1383	EAST LONGMEADOW	42.0602543	42.0602543
1384	1384	VERONA	45.4384958	45.4384958
1385	1385	SAINT ALBANS	44.8107911	44.8107911
1386	1386	FIFE LAKE	44.57695	44.57695
1387	1387	NAPERVILLE	41.7728699	41.7728699
1388	1388	MCKINNEY	33.1976496	33.1976496
1389	1389	BROWNWOOD	31.7070026	31.7070026
1390	1390	EATON RAPIDS	42.5092039	42.5092039
1391	1391	BELTON	31.0560132	31.0560132
1392	1392	GAITHERSBURG	39.1399187	39.1399187
1393	1393	VINEYARD HAVEN	41.4542914	41.4542914
1394	1394	GRANTS PASS	42.4393707	42.4393707
1395	1395	SOUTH PITTSBURG	35.0122635	35.0122635
1396	1396	MC DONALD	-17.7619033	-17.7619033
1397	1397	SHELTON	41.3164856	41.3164856
1398	1398	NORTH HAMPTON	42.9725895	42.9725895
1399	1399	HUTCHINSON	35.8148236	35.8148236
1400	1400	WARM SPRINGS	32.8904081	32.8904081
1401	1401	WHITE CITY	51.5119347	51.5119347
1402	1402	MIAMI GARDENS	25.9420377	25.9420377
1403	1403	DELTA	33.3926893	33.3926893
1404	1404	FERGUS FALLS	46.283015	46.283015
1405	1405	GLENSHAW	40.5328462	40.5328462
1406	1406	OLATHE	38.8838856	38.8838856
1407	1407	FLINT	43.0161693	43.0161693
1408	1408	DONNA	26.1702082	26.1702082
1409	1409	DELPHOS	40.6636026	40.6636026
1410	1410	IPSWICH	52.0579495	52.0579495
1411	1411	FOLEY	30.4065868	30.4065868
1412	1412	BRIDGEVILLE	40.3561805	40.3561805
1413	1413	MOULTRIE	39.6391442	39.6391442
1414	1414	SAGINAW	43.4200387	43.4200387
1415	1415	WILLIS WHARF	37.5156902	37.5156902
1416	1416	GRAHAM	39.34062	39.34062
1417	1417	LUFKIN	31.3386242	31.3386242
1418	1418	PURCELLVILLE	39.1366223	39.1366223
1419	1419	HARTFORD	41.764582	41.764582
1420	1420	FORT SCOTT	37.8399791	37.8399791
1421	1421	VACAVILLE	38.3565773	38.3565773
1422	1422	MCALLEN	26.2043691	26.2043691
1423	1423	BRAWLEY	33.018515	33.018515
1424	1424	LA JOLLA	32.83259	32.83259
1425	1425	ROCKLEIGH	41.0003754	41.0003754
1426	1426	HAZELWOOD	38.7761446	38.7761446
1427	1427	WAHOO	41.2111084	41.2111084
1428	1428	BUFFALO GROVE	42.1514146	42.1514146
1429	1429	LEANDER	30.5603086	30.5603086
1430	1430	SUNNYSIDE	47.8595825	47.8595825
1431	1431	NORTH CHESTERFIELD	35.8101298	35.8101298
1432	1432	HARLEYSVILLE	40.2795476	40.2795476
1433	1433	STILLWATER	36.1135071	36.1135071
1434	1434	EXTON	40.02985865	40.02985865
1435	1435	DELMAR	42.0022247	42.0022247
1436	1436	DEERFIELD BEACH	26.318342	26.318342
1437	1437	HARDIN	30.3049642	30.3049642
1438	1438	ESCALON	37.7974273	37.7974273
1439	1439	GREEN LANE	40.3367674	40.3367674
1440	1440	CLEARFIELD	40.800693	40.800693
1441	1441	PARK CITY	40.6460921	40.6460921
1442	1442	DEKALB	41.8903447	41.8903447
1443	1443	LAKE OSWEGO	45.4206749	45.4206749
1444	1444	CASEY	41.5051917	41.5051917
1445	1445	DENISON	33.7556593	33.7556593
1446	1446	BEAVERCREEK TOWNSHIP	39.72410105	39.72410105
1447	1447	SCOTTSBORO	34.6731323	34.6731323
1448	1448	CONYERS	33.6676103	33.6676103
1449	1449	MOUNT OLIVE	33.681159	33.681159
1450	1450	ROGERS	36.3320197	36.3320197
1451	1451	UKIAH	39.1501662	39.1501662
1452	1452	TETONIA	43.8144799	43.8144799
1453	1453	LINDSTROM	45.3894083	45.3894083
1454	1454	MANASQUAN	40.126226	40.126226
1455	1455	EL DORADO SPRINGS	37.8769799	37.8769799
1456	1456	STATESVILLE	35.7826363	35.7826363
1457	1457	AMARILLO	35.2072185	35.2072185
1458	1458	UTICA	43.1009031	43.1009031
1459	1459	OKMULGEE	35.6234738	35.6234738
1460	1460	CLIFTON	40.8584328	40.8584328
1461	1461	CANAL WINCHESTER	39.8429205	39.8429205
1462	1462	CLAXTON	32.1615815	32.1615815
1463	1463	WESLEY CHAPEL	28.1866014	28.1866014
1464	1464	MIAMI SPRINGS	25.8223198	25.8223198
1465	1465	SIMPSONVILLE	34.7370639	34.7370639
1466	1466	LEWES	50.8746139	50.8746139
1467	1467	Fort Lauderdale	26.1223084	26.1223084
1468	1468	ALHAMBRA	37.17605995	37.17605995
1469	1469	ORANGE COVE	36.624394	36.624394
1470	1470	CHEHALIS	46.6599653	46.6599653
1471	1471	WILTON	47.5034	47.5034
1472	1472	ASHEVILLE	35.6009498	35.6009498
1473	1473	KERMAN	29.571858	29.571858
1474	1474	WARRINGTON	53.3899497	53.3899497
1475	1475	KINSTON	17.9712148	17.9712148
1476	1476	SOUTH WINDSOR	41.8489872	41.8489872
1477	1477	GLEN COVE	40.8641845	40.8641845
1478	1478	BALA CYNWYD	40.0076125	40.0076125
1479	1479	TEWKSBURY	42.6106479	42.6106479
1480	1480	BYRON	44.0325922	44.0325922
1481	1481	WAYCROSS	31.2135511	31.2135511
1482	1482	DULLES	29.456179	29.456179
1483	1483	TAUNTON	51.0147895	51.0147895
1484	1484	EAST HAVEN	41.2762081	41.2762081
1485	1485	MATAWAN	40.41483	40.41483
1486	1486	CHARLOTTESVILLE	38.029306	38.029306
1487	1487	GLEN ALLEN	37.316934	37.316934
1488	1488	WOODSIDE	37.4299388	37.4299388
1489	1489	INVERNESS	57.4790124	57.4790124
1490	1490	NEW ORLEANS	29.9759983	29.9759983
1491	1491	NORTH KANSAS CITY	39.1432057	39.1432057
1492	1492	MECHANICVILLE	42.9028547	42.9028547
1493	1493	HUDSONVILLE	42.870889	42.870889
1494	1494	THOMPSONVILLE	37.9175489	37.9175489
1495	1495	EAST ORANGE	40.767323	40.767323
1496	1496	HOLLISTON	42.2000966	42.2000966
1497	1497	LOVELL	44.127028	44.127028
1498	1498	SEABROOK	29.5633199	29.5633199
1499	1499	MEQUON	43.2219088	43.2219088
1500	1500	GREENBRAE	37.9485356	37.9485356
1501	1501	MIDDLEFIELD	42.6872972	42.6872972
1502	1502	WALNUT CREEK	37.9020731	37.9020731
1503	1503	WEST HOLLYWOOD	34.0923014	34.0923014
1504	1504	LEHI	40.3881114	40.3881114
1505	1505	SAN LEANDRO	37.7249296	37.7249296
1506	1506	VALLEY STREAM	40.6631362	40.6631362
1507	1507	TAHLEQUAH	35.91537	35.91537
1508	1508	NEW IBERIA	30.0035365	30.0035365
1509	1509	VADNAIS HEIGHTS	45.0574659	45.0574659
1510	1510	PRINCETON JUNCTION	40.321632	40.321632
1511	1511	BELCAMP	53.4068274	53.4068274
1512	1512	BLYTHE	33.6134767	33.6134767
1513	1513	PONCHATOULA	30.4388041	30.4388041
1514	1514	LA PUENTE	34.01979	34.01979
1515	1515	TEA	43.44661	43.44661
1516	1516	FOREST LAKE	45.279106	45.279106
1517	1517	HACKENSACK	40.8871438	40.8871438
1518	1518	JERSEY CITY	40.7215682	40.7215682
1519	1519	FLOWERY BRANCH	34.1851017	34.1851017
1520	1520	CRANFORD	40.6584358	40.6584358
1521	1521	LAGRANGE	43.1268715	43.1268715
1522	1522	WASHOUGAL	45.5819594	45.5819594
1523	1523	WICKLIFFE	36.9647458	36.9647458
1524	1524	INDIAN TRAIL	35.0768141	35.0768141
1525	1525	VENICE	45.4371908	45.4371908
1526	1526	INWOOD	43.3073497	43.3073497
1527	1527	COLD SPRING HARBOR	40.8602595	40.8602595
1528	1528	PEEKSKILL	41.289811	41.289811
1529	1529	PROVIDENCE	41.8239891	41.8239891
1530	1530	PINE BROOK	40.2806668	40.2806668
1531	1531	RICHVALE	39.4937751	39.4937751
1532	1532	OAKLAND PARK	26.1723065	26.1723065
1533	1533	CARTERSVILLE	34.1652304	34.1652304
1534	1534	MONROEVILLE	40.4211798	40.4211798
1535	1535	CLINTON TOWNSHIP	42.5869782	42.5869782
1536	1536	BISHOP	37.363679	37.363679
1537	1537	SHERMAN	36.2452294	36.2452294
1538	1538	WILLIAMSON	30.6580927	30.6580927
1539	1539	STAUNTON	38.1495947	38.1495947
1540	1540	MILLERSVILLE	35.3038485	35.3038485
1541	1541	HOLYOKE	42.2071434	42.2071434
1542	1542	WEST COVINA	34.0471735	34.0471735
1543	1543	ISSAQUAH	47.5348778	47.5348778
1544	1544	TULARE	36.2516475	36.2516475
1545	1545	PORTERVILLE	36.06523	36.06523
1546	1546	VIRGINIA GARDENS	25.8103758	25.8103758
1547	1547	ANTIOCH	38.0049214	38.0049214
1548	1548	SPENCER	43.1415519	43.1415519
1549	1549	ATASCOSA	28.8554434	28.8554434
1550	1550	SHREWSBURY	52.707755	52.707755
1551	1551	HAVERHILL	42.7777829	42.7777829
1552	1552	WESTBURY	40.7556561	40.7556561
1553	1553	OKEECHOBEE	27.3923408	27.3923408
1554	1554	SAINT JAMES	48.5232	48.5232
1555	1555	SOUTH JACKSONVILLE	39.7086582	39.7086582
1556	1556	ATLANTIC CITY	39.3642852	39.3642852
1557	1557	NEW BEDFORD	41.6362152	41.6362152
1558	1558	LITCHFIELD	41.767249	41.767249
1559	1559	LOVELOCK	40.1847417	40.1847417
1560	1560	LANTANA	33.09400855	33.09400855
1561	1561	HACIENDA HEIGHTS	33.9930677	33.9930677
1562	1562	NORTH VERSAILLES	40.3797913	40.3797913
1563	1563	OREGON CITY	45.3573429	45.3573429
1564	1564	EWING	38.0886603	38.0886603
1565	1565	CALIFORNIA	36.7014631	36.7014631
1566	1566	SIOUX CITY	42.4966815	42.4966815
1567	1567	PEOSTA	42.4469535	42.4469535
1568	1568	SUDBURY	46.49272	46.49272
1569	1569	MORENO VALLEY	33.937517	33.937517
1570	1570	KAKTOVIK	70.1263327	70.1263327
1571	1571	CEDARBURG	43.2966545	43.2966545
1572	1572	RUNNEMEDE	39.8523358	39.8523358
1573	1573	SIOUX FALLS	43.5412244	43.5412244
1574	1574	NORTHFIELD	44.4582041	44.4582041
1575	1575	ALEDO	32.69900905	32.69900905
1576	1576	NORTH POLE	90.0	90.0
1577	1577	REX	34.8520565	34.8520565
1578	1578	JOHNS CREEK	34.0181557	34.0181557
1579	1579	ANACORTES	48.5020123	48.5020123
1580	1580	WILLIAMSBURG	37.2708788	37.2708788
1581	1581	RENO	39.5261206	39.5261206
1582	1582	WAUSAU	44.9596017	44.9596017
1583	1583	JOBSTOWN	40.0370565	40.0370565
1584	1584	CONWAY	35.2521996	35.2521996
1585	1585	GOLD HILL	42.431785	42.431785
1586	1586	POTEET	29.0373552	29.0373552
1587	1587	EGG HARBOR TOWNSHIP	39.3820672	39.3820672
1588	1588	GLENWOOD SPRINGS	39.5507448	39.5507448
1589	1589	PARADISE VALLEY	33.5428006	33.5428006
1590	1590	NEW SMYRNA BEACH	29.0258132	29.0258132
1591	1591	DUNMORE	53.6190495	53.6190495
1592	1592	KENAI	60.5544444	60.5544444
1593	1593	HELOTES	29.5635688	29.5635688
1594	1594	EAST ROCHESTER	40.7461701	40.7461701
1595	1595	SPRINGTOWN	32.97067175	32.97067175
1596	1596	NEWBERRY	34.2753247	34.2753247
1597	1597	BERLIN	52.5170365	52.5170365
1598	1598	HARTSELLE	34.4435937	34.4435937
1599	1599	PEMBERVILLE	41.4108855	41.4108855
1600	1600	KINGS PARK	-31.9621612	-31.9621612
1601	1601	ESTES PARK	40.336359	40.336359
1602	1602	COLLEGE STATION	30.5955289	30.5955289
1603	1603	BLACKSBURG	37.2296566	37.2296566
1604	1604	LULING	29.680314	29.680314
1605	1605	TRAVELERS REST	34.9676167	34.9676167
1606	1606	DULCE	-28.6776869	-28.6776869
1607	1607	ROBBINSVILLE	35.3227597	35.3227597
1608	1608	SWANTON	44.918139	44.918139
1609	1609	FRIENDLY	38.756867	38.756867
1610	1610	TRUMBULL	41.2428742	41.2428742
1611	1611	DANVERS	42.5750946	42.5750946
1612	1612	CASTLE ROCK	39.3722552	39.3722552
1613	1613	NORTH SYRACUSE	43.0090105	43.0090105
1614	1614	BRISTOL	51.47091115	51.47091115
1615	1615	HERMITAGE	59.9412076	59.9412076
1616	1616	NANUET	41.0903087	41.0903087
1617	1617	LOS GATOS	37.226611	37.226611
1618	1618	ELIZABETH	40.6639916	40.6639916
1619	1619	YORBA LINDA	33.8901096	33.8901096
1620	1620	LELAND	34.2203056	34.2203056
1621	1621	ALICE	27.7522487	27.7522487
1622	1622	TEMPLETON	41.9185415	41.9185415
1623	1623	ALISO VIEJO	33.5761376	33.5761376
1624	1624	ABERNATHY	33.8323038	33.8323038
1625	1625	MISSION VIEJO	33.5965685	33.5965685
1626	1626	CORDOVA	37.8845813	37.8845813
1627	1627	ROCKLEDGE	28.3201553	28.3201553
1628	1628	VANCOUVER	49.2608724	49.2608724
1629	1629	EDINBORO	41.8742225	41.8742225
1630	1630	KITTY HAWK	36.0664318	36.0664318
1631	1631	CLIFTON PARK	42.8631868	42.8631868
1632	1632	COVENTRY TOWNSHIP	41.0089074	41.0089074
1633	1633	PEMBROKE	45.8260909	45.8260909
1634	1634	IMPERIAL	33.0305487	33.0305487
1635	1635	ALLENTOWN	40.6022059	40.6022059
1636	1636	IRA	32.6475314	32.6475314
1637	1637	HURON	43.8385749	43.8385749
1638	1638	SARVER	40.7314538	40.7314538
1639	1639	LINCOLN CITY	44.9617922	44.9617922
1640	1640	STATE COLLEGE	40.7944504	40.7944504
1641	1641	WYOMING	43.1700264	43.1700264
1642	1642	CARVER	44.807118	44.807118
1643	1643	BROOMFIELD	39.9403995	39.9403995
1644	1644	HEREFORD	52.0553813	52.0553813
1645	1645	REEDLEY	36.5963395	36.5963395
1646	1646	OAK CREEK	42.8858503	42.8858503
1647	1647	TEMECULA	33.4946353	33.4946353
1648	1648	LOVINGSTON	37.7598637	37.7598637
1649	1649	WATERLOO	42.498275	42.498275
1650	1650	REYNOLDSBURG	39.9547861	39.9547861
1651	1651	BIG BEND	39.6982182	39.6982182
1652	1652	BARTLETT	41.9908485	41.9908485
1653	1653	SAUGERTIES	42.0775906	42.0775906
1654	1654	MINNETONKA	44.9405086	44.9405086
1655	1655	BILOXI	30.4007626	30.4007626
1656	1656	POTTSBORO	33.759271	33.759271
1657	1657	AVENEL	40.5848314	40.5848314
1658	1658	PEKIN	39.906217	39.906217
1659	1659	CAMPBELLSVILLE	37.3433974	37.3433974
1660	1660	LEUPP	35.2982231	35.2982231
1661	1661	ELK RIVER	45.3038538	45.3038538
1662	1662	EAST PEORIA	40.666149	40.666149
1663	1663	SHALLOTTE	33.9732275	33.9732275
1664	1664	CLINTON	38.5896187	38.5896187
1665	1665	BETHEL	60.7922222	60.7922222
1666	1666	MARKHAM	43.8563707	43.8563707
1667	1667	NORTH BENNINGTON	42.930356	42.930356
1668	1668	CORAL SPRINGS	26.271192	26.271192
1669	1669	PAWLEYS ISLAND	33.4293486	33.4293486
1670	1670	SOUTH PASADENA	34.1133062	34.1133062
1671	1671	FAIRBANKS	64.837845	64.837845
1672	1672	TYSONS	38.916509	38.916509
1673	1673	DOUGLASVILLE	33.7514966	33.7514966
1674	1674	STEPHENVILLE	32.2191836	32.2191836
1675	1675	LAKEVILLE	44.650051	44.650051
1676	1676	JUNEAU	58.3019496	58.3019496
1677	1677	CAMERON PARK	38.68200185	38.68200185
1678	1678	ZION	42.4461322	42.4461322
1679	1679	JUNCTION CITY	39.0286093	39.0286093
1680	1680	SMITHTOWN	40.8559314	40.8559314
1681	1681	HICKSVILLE	40.7681895	40.7681895
1682	1682	LYNN	33.1474257	33.1474257
1683	1683	CHERRYVILLE	35.3787442	35.3787442
1684	1684	PENUELAS	18.05552175	18.05552175
1685	1685	TREMONTON	41.7120775	41.7120775
1686	1686	HATTIESBURG	31.3271189	31.3271189
1687	1687	GLADBROOK	42.1877496	42.1877496
1688	1688	PLAINVILLE	49.6145456	49.6145456
1689	1689	PRINCE FREDERICK	38.5403996	38.5403996
1690	1690	SHIRLEY	40.79684165	40.79684165
1691	1691	SHAKOPEE	44.7980186	44.7980186
1692	1692	NORCO	33.9323307	33.9323307
1693	1693	JANESVILLE	42.6829765	42.6829765
1694	1694	PENNSAUKEN	39.9562238	39.9562238
1695	1695	CAROL STREAM	41.9125286	41.9125286
1696	1696	SAN FERNANDO	36.4643934	36.4643934
1697	1697	NEWMAN LAKE	47.7241586	47.7241586
1698	1698	SOUTH ELGIN	41.9941938	41.9941938
1699	1699	YORKTOWN HEIGHTS	41.2695965	41.2695965
1700	1700	ARVADA	39.8005505	39.8005505
1701	1701	GALLUP	35.5283506	35.5283506
1702	1702	POINT REYES STATION	38.0690895	38.0690895
1703	1703	LAKE DALLAS	33.1192875	33.1192875
1704	1704	YAKIMA	46.601557	46.601557
1705	1705	COLVILLE	48.5465695	48.5465695
1706	1706	SAINT STEPHEN	51.5180868	51.5180868
1707	1707	METUCHEN	40.5431598	40.5431598
1708	1708	MONMOUTH JUNCTION	40.3840222	40.3840222
1709	1709	TERRE HAUTE	39.4667025	39.4667025
1710	1710	CLAYTON	42.8547706	42.8547706
1711	1711	WALKER	30.6795741	30.6795741
1712	1712	EDINBURG	55.9533456	55.9533456
1713	1713	SEAFORD	38.6413452	38.6413452
1714	1714	ROLLING MEADOWS	42.0841936	42.0841936
1715	1715	NOME	64.4989922	64.4989922
1716	1716	HOPEWELL	37.3043154	37.3043154
1717	1717	BELMONT	48.4086571	48.4086571
1718	1718	BILLINGS	45.7874957	45.7874957
1719	1719	APPLETON	44.2613967	44.2613967
1720	1720	ST LOUIS PARK	44.9475726	44.9475726
1721	1721	STRAWN	32.5520737	32.5520737
1722	1722	LAS CRUCES	32.3140354	32.3140354
1723	1723	CLAY CENTER	39.376941	39.376941
1724	1724	PELLA	45.8016249	45.8016249
1725	1725	LA MESA	32.7678288	32.7678288
1726	1726	MILL CREEK	47.8577455	47.8577455
1727	1727	IXONIA	43.137841	43.137841
1728	1728	GRAND JUNCTION	39.063956	39.063956
1729	1729	LOVELAND	40.3977612	40.3977612
1730	1730	BULLHEAD CITY	35.1477774	35.1477774
1731	1731	STONY BROOK	40.9256538	40.9256538
1732	1732	MAYNARD	42.7738826	42.7738826
1733	1733	RICHFIELD	44.8766431	44.8766431
1734	1734	PACIFICA	37.6138253	37.6138253
1735	1735	SHIPSHEWANA	41.6728282	41.6728282
1736	1736	HAM LAKE	45.2502429	45.2502429
1737	1737	MANKATO	44.1634663	44.1634663
1738	1738	EARLHAM	41.4914439	41.4914439
1739	1739	NEW WINDSOR	41.4767605	41.4767605
1740	1740	OSBORN	44.7837848	44.7837848
1741	1741	NATICK	42.28700595	42.28700595
1742	1742	BRIDGEVIEW	41.7500323	41.7500323
1743	1743	HORIZON CITY	31.6926121	31.6926121
1744	1744	CONVERSE	43.0202459	43.0202459
1745	1745	LAKE ELSINORE	33.6680772	33.6680772
1746	1746	NEW GLOUCESTER	43.963168	43.963168
1747	1747	MONACA	40.6872885	40.6872885
1748	1748	ORCHARD PARK	53.7878654	53.7878654
1749	1749	BISMARCK	46.808327	46.808327
1750	1750	HARLINGEN	26.1908241	26.1908241
1751	1751	ELK GROVE	38.4087993	38.4087993
1752	1752	COZAD	40.8595822	40.8595822
1753	1753	WILLISTON	48.1465457	48.1465457
1754	1754	MONTICELLO	42.6214159	42.6214159
1755	1755	TORRINGTON	41.8006523	41.8006523
1756	1756	SHELBY TOWNSHIP	43.60107655	43.60107655
1757	1757	MERCED	37.1641544	37.1641544
1758	1758	TAYLORSVILLE	40.6676347	40.6676347
1759	1759	DUBUQUE	42.5006243	42.5006243
1760	1760	ELLENVILLE	41.7170379	41.7170379
1761	1761	MILLER	31.1591063	31.1591063
1762	1762	MAPLE VALLEY	47.3664231	47.3664231
1763	1763	DRIPPING SPRINGS	30.1902067	30.1902067
1764	1764	FOUNTAINVILLE	40.3412269	40.3412269
1765	1765	NEW BRAUNFELS	29.7028266	29.7028266
1766	1766	BERNARDSVILLE	40.7186805	40.7186805
1767	1767	UNALASKA	53.8722824	53.8722824
1768	1768	ROCKDALE	30.6549433	30.6549433
1769	1769	BURWELL	41.7816186	41.7816186
1770	1770	SOLANA BEACH	32.9905597	32.9905597
1771	1771	APACHE JUNCTION	33.4150485	33.4150485
1772	1772	SPRING VALLEY	29.7911185	29.7911185
1773	1773	ELYRIA	41.3673191	41.3673191
1774	1774	OMAK	48.4109853	48.4109853
1775	1775	CAVE CREEK	33.8333333	33.8333333
1776	1776	DIAMOND BAR	34.0286226	34.0286226
1777	1777	NORTH HIGHLANDS	38.6710975	38.6710975
1778	1778	TEHACHAPI	35.1321878	35.1321878
1779	1779	BENSENVILLE	41.9538384	41.9538384
1780	1780	PEOTONE	41.3323725	41.3323725
1781	1781	CLAREMONT	34.0966764	34.0966764
1782	1782	OCEANSIDE	33.1958696	33.1958696
1783	1783	CHASKA	44.7894072	44.7894072
1784	1784	SAN DIMAS	34.085315	34.085315
1785	1785	SYLMAR	34.3076252	34.3076252
1786	1786	BELLFLOWER	33.8825705	33.8825705
1787	1787	LEMON GROVE	32.7425516	32.7425516
1788	1788	NEWCASTLE	54.9738474	54.9738474
1789	1789	NIBLEY	41.6745591	41.6745591
1790	1790	SPEARFISH	44.490817	44.490817
1791	1791	SAN YSIDRO	32.5520013	32.5520013
1792	1792	KOTZEBUE	66.8982057	66.8982057
1793	1793	WOLCOTT	43.220622	43.220622
1794	1794	MONUMENT	51.5106328	51.5106328
1795	1795	THORNTON	39.8695516	39.8695516
1796	1796	LA HABRA	33.9316066	33.9316066
1797	1797	POUGHKEEPSIE	41.7065539	41.7065539
1798	1798	BARROW	71.3865172	71.3865172
1799	1799	BOXBOROUGH	42.4934474	42.4934474
1800	1800	KING COVE	40.9200986	40.9200986
1801	1801	MANOKOTAK	58.996025	58.996025
1802	1802	KETCHIKAN	55.3430696	55.3430696
1803	1803	SMITH RIVER	41.9281678	41.9281678
1804	1804	COMMERCE CITY	39.8083196	39.8083196
1805	1805	ABERDEEN	57.1482429	57.1482429
1806	1806	HOLLIS	35.6674547	35.6674547
1807	1807	MIDDLESEX	51.5460558	51.5460558
1808	1808	FREWSBURG	42.060185	42.060185
1809	1809	BERGEN	60.3943055	60.3943055
1810	1810	PUEBLO WEST	38.3558615	38.3558615
1811	1811	TUKWILA	47.4627356	47.4627356
1812	1812	FOND DU LAC	43.7748763	43.7748763
1813	1813	COLD SPRING	45.4557973	45.4557973
1814	1814	JOSHUA	32.4615291	32.4615291
1815	1815	BARABOO	43.4704014	43.4704014
1816	1816	NEW BRIGHTON	45.0628999	45.0628999
1817	1817	SILSBEE	30.3490978	30.3490978
1818	1818	CROWN POINT	41.4169806	41.4169806
1819	1819	MITCHELL	32.2898049	32.2898049
1820	1820	FEDERAL WAY	47.313494	47.313494
1821	1821	KERRVILLE	30.0474688	30.0474688
1822	1822	PALMER	61.5995703	61.5995703
1823	1823	PALATKA	29.6487882	29.6487882
1824	1824	PUEBLO	38.2544472	38.2544472
1825	1825	LODI	45.2613104	45.2613104
1826	1826	HEALDSBURG	38.6106812	38.6106812
1827	1827	CHINLE	36.1501434	36.1501434
1828	1828	MCDONOUGH	40.4376858	40.4376858
1829	1829	JOHNSON CITY	36.3134398	36.3134398
1830	1830	COCHITI LAKE	35.6480855	35.6480855
1831	1831	EFFINGHAM	39.0520902	39.0520902
1832	1832	DOWAGIAC	41.9842123	41.9842123
1833	1833	SHAWNEE MISSION	38.9899113	38.9899113
1834	1834	EAST NORTHPORT	40.8767648	40.8767648
1835	1835	YAPHANK	40.8317763	40.8317763
1836	1836	FORT MORGAN	40.2502582	40.2502582
1837	1837	MOSCOW	55.7504461	55.7504461
1838	1838	HARBOR CITY	33.7911012	33.7911012
1839	1839	WATSONVILLE	36.9092773	36.9092773
1840	1840	WEST JORDAN	40.6061308	40.6061308
1841	1841	OROVILLE	39.5137752	39.5137752
1842	1842	LYNBROOK	40.6548253	40.6548253
1843	1843	STACY	45.3980205	45.3980205
1844	1844	GLOBE	51.5081048	51.5081048
1845	1845	MENOMONEE FALLS	43.1790768	43.1790768
1846	1846	REXBURG	43.8235163	43.8235163
1847	1847	DUARTE	19.243456	19.243456
1848	1848	AUBREY	33.3142085	33.3142085
1849	1849	GRASS VALLEY	39.2190607	39.2190607
1850	1850	ELLENSBURG	46.9970635	46.9970635
1851	1851	AVILA BEACH	35.1799752	35.1799752
1852	1852	NORTH VERNON	39.006165	39.006165
1853	1853	DALY CITY	37.6904826	37.6904826
1854	1854	WRANGELL	56.4706022	56.4706022
1855	1855	VERNAL	40.4556825	40.4556825
1856	1856	WORDEN	38.9314354	38.9314354
1857	1857	ALTADENA	34.1863161	34.1863161
1858	1858	URBANDALE	41.6274511	41.6274511
1859	1859	SCAPPOOSE	45.7572997	45.7572997
1860	1860	CITRUS HEIGHTS	38.7071247	38.7071247
1861	1861	ROUNDUP	46.445242	46.445242
1862	1862	NORTHRIDGE	34.2345615	34.2345615
1863	1863	PONDER	33.1828974	33.1828974
1864	1864	NAMPA	43.5737361	43.5737361
1865	1865	EAGLE CREEK	44.7297472	44.7297472
1866	1866	SUNLAND PARK	31.796496	31.796496
1867	1867	SOLON	42.9563852	42.9563852
1868	1868	ANGLETON	29.16941	29.16941
1869	1869	PARMA	44.8013678	44.8013678
1870	1870	CEDAR RAPIDS	41.9758872	41.9758872
1871	1871	DE PERE	44.4493584	44.4493584
1872	1872	CHEYENNE	41.139981	41.139981
1873	1873	ROWLAND HEIGHTS	33.9761238	33.9761238
1874	1874	SHERIDAN	39.3530598	39.3530598
1875	1875	WINSTED	41.927511	41.927511
1876	1876	MIDVALE	40.6149174	40.6149174
1877	1877	VEGA	35.2428319	35.2428319
1878	1878	PALM DESERT	33.74079965	33.74079965
1879	1879	NORTHGLENN	39.9100858	39.9100858
1880	1880	LAYTON	41.0751048	41.0751048
1881	1881	LONGMONT	40.1672117	40.1672117
1882	1882	CORTEZ	37.3494528	37.3494528
1883	1883	PORT HEIDEN	56.941863	56.941863
1884	1884	WAYZATA	44.970759	44.970759
1885	1885	HERMOSA BEACH	33.86428	33.86428
1886	1886	WEST LAFAYETTE	40.4258686	40.4258686
1887	1887	CAPITOLA	36.9762927	36.9762927
1888	1888	NOORVIK	66.83064	66.83064
1889	1889	TUALATIN	45.3838546	45.3838546
1890	1890	FLAGSTAFF	35.1987522	35.1987522
1891	1891	ELKO	41.1958128	41.1958128
1892	1892	CASPER	42.8501191	42.8501191
1893	1893	EAGLE RIVER	45.917176	45.917176
1894	1894	BRIGHAM CITY	41.5110434	41.5110434
1895	1895	BROWNSDALE	43.7402404	43.7402404
1896	1896	SOMERTON	52.1464596	52.1464596
1897	1897	EDEN	36.4884715	36.4884715
1898	1898	STAR	-14.6909792	-14.6909792
1899	1899	SOUR LAKE	30.1402122	30.1402122
1900	1900	SAUSALITO	37.8590272	37.8590272
1901	1901	CHALLIS	44.5051319	44.5051319
1902	1902	KYLE	29.9892816	29.9892816
1903	1903	RIO RICO	31.4714828	31.4714828
1904	1904	HIAWATHA	42.0482764	42.0482764
1905	1905	EMMONAK	62.7772477	62.7772477
1906	1906	MOONACHIE	40.8412112	40.8412112
1907	1907	SNOHOMISH	47.9180275	47.9180275
1908	1908	LA PORTE	29.6657838	29.6657838
1909	1909	CEDAR FALLS	42.5361805	42.5361805
1910	1910	ST GEORGE	37.104153	37.104153
1911	1911	WASHINGTON TERRACE	41.16844615	41.16844615
1912	1912	SHONTO	36.5895965	36.5895965
1913	1913	CALDWELL	29.8298971	29.8298971
1914	1914	OAK GROVE	41.4136501	41.4136501
1915	1915	GRIMES	30.5169334	30.5169334
1916	1916	NEW BERLIN	29.4641219	29.4641219
1917	1917	AGUA DULCE	18.0899541	18.0899541
1918	1918	SOQUEL	36.992568	36.992568
1919	1919	ARLINGTON HEIGHTS	42.0811563	42.0811563
1920	1920	MONTROSE	38.4375391	38.4375391
1921	1921	HONDO	29.3474121	29.3474121
1922	1922	SANTEE	32.8383828	32.8383828
1923	1923	BROADVIEW	41.8639201	41.8639201
1924	1924	KODIAK	57.79	57.79
1925	1925	WALLER	29.9443902	29.9443902
1926	1926	SANTA TERESA	-22.9319478	-22.9319478
1927	1927	SHAFTER	35.5005139	35.5005139
1928	1928	MARSHALLTOWN	42.048881	42.048881
1929	1929	HUFFMAN	33.5992702	33.5992702
1930	1930	MASON CITY	43.1524574	43.1524574
1931	1931	ADKINS	29.3930129	29.3930129
1932	1932	BACLIFF	29.506321	29.506321
1933	1933	KING SALMON	58.7551615	58.7551615
1934	1934	SOUTH HOLLAND	51.9966792	51.9966792
1935	1935	SIERRA VISTA	31.5545973	31.5545973
1936	1936	SITKA	57.0524973	57.0524973
1937	1937	BUNA	43.2471257	43.2471257
1938	1938	WASILLA	61.5824216	61.5824216
1939	1939	CROWNPOINT	35.6873288	35.6873288
1940	1940	OUZINKIE	57.920467	57.920467
1941	1941	HOBSON	47.000263	47.000263
1942	1942	SOUTH JORDAN	40.5584882	40.5584882
1943	1943	CANBY	44.708853	44.708853
1944	1944	ELY	52.40187845	52.40187845
1945	1945	RHOME	33.0534563	33.0534563
1946	1946	BRANDON	46.35270835	46.35270835
1947	1947	ELK MOUND	44.8730167	44.8730167
1948	1948	BOUNTIFUL	40.8894611	40.8894611
1949	1949	PITTSBURG	40.4416941	40.4416941
1950	1950	LITCHFIELD PARK	33.4933796	33.4933796
1951	1951	SILVERDALE	47.6696734	47.6696734
1952	1952	MEKORYUK	60.3752145	60.3752145
1953	1953	DILLINGHAM	59.0479355	59.0479355
1954	1954	SARATOGA	43.0833231	43.0833231
1955	1955	WEST LAKE HILLS	30.2877039	30.2877039
1956	1956	NEENAH	44.1858193	44.1858193
1957	1957	REDONDO BEACH	33.8455911	33.8455911
1958	1958	CENTURY	30.9732384	30.9732384
1959	1959	NEWBURY PARK	51.5754985	51.5754985
1960	1960	PARKER	32.7599475	32.7599475
1961	1961	MAGNOLIA	30.2093794	30.2093794
1962	1962	BALLINGER	31.7411047	31.7411047
1963	1963	CHITINA	61.5169309	61.5169309
1964	1964	BURIEN	47.469918	47.469918
1965	1965	BINGEN	49.9667	49.9667
1966	1966	WAUKEE	41.6118485	41.6118485
1967	1967	THE DALLES	45.6015056	45.6015056
1968	1968	HILLSBORO	45.5228939	45.5228939
1969	1969	JUSTIN	33.0848442	33.0848442
1970	1970	BOSQUE FARMS	34.8505885	34.8505885
1971	1971	CHANNELVIEW	29.7760599	29.7760599
1972	1972	FILER	42.570186	42.570186
1973	1973	NEW CANEY	30.155216	30.155216
1974	1974	FARGO	46.877229	46.877229
1975	1975	SANOSTEE	36.4247253	36.4247253
1976	1976	WHITE BEAR LAKE	45.0838098	45.0838098
1977	1977	PINON	49.4874775	49.4874775
1978	1978	CHINO VALLEY	34.78357	34.78357
1979	1979	STUDIO CITY	34.1483989	34.1483989
1980	1980	PETERSBURG	59.938732	59.938732
1981	1981	CARSON CITY	39.1649125	39.1649125
1982	1982	RCHO STA MARG		
1983	1983	TOGIAK	58.9638935	58.9638935
1984	1984	SAINT MARIES	47.3143542	47.3143542
1985	1985	BATTLE GROUND	45.7813532	45.7813532
1986	1986	HINTON	42.626701	42.626701
1987	1987	NEWHALL	41.994547	41.994547
1988	1988	SEDONA	34.8679599	34.8679599
1989	1989	BRENHAM	30.1668828	30.1668828
1990	1990	MONMOUTH	51.8098882	51.8098882
1991	1991	BAYFIELD	46.4710241	46.4710241
1992	1992	WACO	31.549333	31.549333
1993	1993	SPRINGVILLE	42.0602077	42.0602077
1994	1994	PAGOSA SPRINGS	37.2695661	37.2695661
1995	1995	MOUNTAIN HOME	43.1329504	43.1329504
1996	1996	EMMETT	39.307218	39.307218
1997	1997	ROOSEVELT	48.3069516	48.3069516
1998	1998	LAKESIDE	42.6214633	42.6214633
1999	1999	MARINA DEL REY	33.9776848	33.9776848
2000	2000	MILLBRAE	37.598958	37.598958
2001	2001	BLUE GAP	36.1708352	36.1708352
2002	2002	KAYSVILLE	41.0349847	41.0349847
2003	2003	CAMAS	37.4020115	37.4020115
2004	2004	COLUMBIA CITY	41.156928	41.156928
2005	2005	SHOREVIEW	45.0722056	45.0722056
2006	2006	CRAIG	40.5152491	40.5152491
2007	2007	OLYMPIA	37.63819	37.63819
2008	2008	LAKE HAVASU CITY	34.4838502	34.4838502
2009	2009	SUGAR CITY	43.873014	43.873014
2010	2010	UNION GAP	46.5573492	46.5573492
2011	2011	FIRTH	43.305193	43.305193
2012	2012	SHAKTOOLIK	64.3558973	64.3558973
2013	2013	TOLLESON	33.4500497	33.4500497
2014	2014	HOTCHKISS	37.6740026	37.6740026
2015	2015	KINGWOOD	39.4717557	39.4717557
2016	2016	HAYDEN	46.5383332	46.5383332
2017	2017	BAKER CITY	44.7748748	44.7748748
2018	2018	HOMER	59.6440876	59.6440876
2019	2019	PRIOR LAKE	44.7133271	44.7133271
2020	2020	DUNEDIN	-45.8740984	-45.8740984
2021	2021	BEMIDJI	47.4785418	47.4785418
2022	2022	SILVERTHORNE	39.6571805	39.6571805
2023	2023	KAPOWSIN	46.9856579	46.9856579
2024	2024	CARDIFF BY THE SEA	33.0220155	33.0220155
2025	2025	HYDABURG	55.206666	55.206666
2026	2026	VALDEZ	61.1299396	61.1299396
2027	2027	TIOGA	48.397244	48.397244
2028	2028	BELL GARDENS	33.9694561	33.9694561
2029	2029	CIRCLE PINES	45.144882	45.144882
2030	2030	CANUTILLO	31.9124684	31.9124684
2031	2031	WINNEBAGO	42.3255276	42.3255276
2032	2032	HARTLAND	50.97595295	50.97595295
2033	2033	INVER GROVE HEIGHTS	44.8479039	44.8479039
2034	2034	IDAHO CITY	43.829136	43.829136
2035	2035	BARNESVILLE	46.652182	46.652182
2036	2036	TEEC NOS POS	36.918902	36.918902
2037	2037	SELLERSVILLE	40.3542858	40.3542858
2038	2038	HUNTINGTON PARK	33.9827043	33.9827043
2039	2039	UNALAKLEET	63.8730556	63.8730556
2040	2040	GARY	41.6020962	41.6020962
2041	2041	ELKHORN	42.6727927	42.6727927
2042	2042	DICKINSON	38.8790615	38.8790615
2043	2043	FORT WINGATE	35.4705097	35.4705097
2044	2044	SAINT MARYS	40.5422697	40.5422697
2045	2045	MISSOURI CITY	29.6185669	29.6185669
2046	2046	FRIDAY HARBOR	48.5342662	48.5342662
2047	2047	AMES	50.536715	50.536715
2048	2048	VINTON	42.1679131	42.1679131
2049	2049	CORVALLIS	44.5645659	44.5645659
2050	2050	SKAGWAY	59.4556412	59.4556412
2051	2051	COLONA	41.4754634	41.4754634
2052	2052	BANDERA	29.7643475	29.7643475
2053	2053	DURANGO	24.833333	24.833333
2054	2054	BONDURANT	41.7005441	41.7005441
2055	2055	HURST	32.8234621	32.8234621
2056	2056	GOLDSBORO	35.3848841	35.3848841
2057	2057	CAMERON	4.6125522	4.6125522
2058	2058	GREENWICH	51.4820845	51.4820845
2059	2059	TURLOCK	37.4946568	37.4946568
2060	2060	HUGO	45.159967	45.159967
2061	2061	COTTONWOOD	44.019068	44.019068
2062	2062	PANORAMA CITY	34.2242902	34.2242902
2063	2063	TAOS	36.4072377	36.4072377
2064	2064	WHITERIVER	33.846063	33.846063
2065	2065	KINGSBURG	36.5138398	36.5138398
2066	2066	ALAMO	26.1836854	26.1836854
2067	2067	FRUITLAND	41.3559438	41.3559438
2068	2068	PERALTA	42.3385459	42.3385459
2069	2069	PHILOMATH	44.5400013	44.5400013
2070	2070	LEAD	44.352207	44.352207
2071	2071	WAHPETON	46.265879	46.265879
2072	2072	HOBBS	32.707667	32.707667
2073	2073	GROTON	41.3501598	41.3501598
2074	2074	CERES	45.3133772	45.3133772
2075	2075	LUBBOCK	33.5635206	33.5635206
2076	2076	OWATONNA	44.0839937	44.0839937
2077	2077	LAVINA	46.2946805	46.2946805
2078	2078	CLOVIS	36.8252277	36.8252277
2079	2079	KAYENTA	36.7218463	36.7218463
2080	2080	BROWNSVILLE	25.9140256	25.9140256
2081	2081	SAFFORD	32.8339546	32.8339546
2082	2082	ELMENDORF	29.2560731	29.2560731
2083	2083	BERNALILLO	35.0349239	35.0349239
2084	2084	LESTER PRAIRIE	44.8838514	44.8838514
2085	2085	SCOTTS VALLEY	37.0510595	37.0510595
2086	2086	NAGEEZI	36.246768	36.246768
2087	2087	FORT RIPLEY	46.1660777	46.1660777
2088	2088	SALADO	30.9468791	30.9468791
2089	2089	DFW AIRPORT	32.89651945	32.89651945
2090	2090	GREGORY	43.1713788	43.1713788
2091	2091	GANADO	29.0396292	29.0396292
2092	2092	ROCK POINT	37.6016031	37.6016031
2093	2093	THE COLONY	33.0890094	33.0890094
2094	2094	PORT GRAHAM	59.339569	59.339569
2095	2095	SPRING BRANCH	29.88507325	29.88507325
2096	2096	ANTHONY	37.1533554	37.1533554
2097	2097	BRECKENRIDGE	32.7558392	32.7558392
2098	2098	SAN BRUNO	37.6261715	37.6261715
2099	2099	BRIMHALL	40.6691141	40.6691141
2100	2100	HUTTO	30.5427638	30.5427638
2101	2101	RED VALLEY	40.1617788	40.1617788
2102	2102	PESHTIGO	45.05443	45.05443
2103	2103	LAKEWAY	30.3644888	30.3644888
2104	2104	KWETHLUK	60.798826	60.798826
2105	2105	CHELAN	43.3448259	43.3448259
2106	2106	EAGLE BUTTE	45.000375	45.000375
2107	2107	CHAMBERS	29.7191125	29.7191125
2108	2108	WIMBLEDON	51.4214787	51.4214787
2109	2109	MILILANI	21.4508308	21.4508308
2110	2110	ORINDA	37.8771476	37.8771476
2111	2111	SOUTH HAVEN	45.2922849	45.2922849
2112	2112	MEXICAN SPRINGS	35.7920558	35.7920558
2113	2113	SUNDANCE	44.4064017	44.4064017
2114	2114	GENEVA	46.2017559	46.2017559
2115	2115	QUEEN CREEK	33.2483858	33.2483858
2116	2116	EUNICE	30.4943669	30.4943669
2117	2117	POULSBO	47.7391366	47.7391366
2118	2118	MESILLA PARK	32.2759279	32.2759279
2119	2119	WARROAD	48.905266	48.905266
2120	2120	TUMWATER	47.0080655	47.0080655
2121	2121	WILLIS	30.4241219	30.4241219
2122	2122	EASTVALE	33.9747067	33.9747067
2123	2123	WACONIA	44.8507957	44.8507957
2124	2124	WINSLOW	35.0241874	35.0241874
2125	2125	ALVARADO	18.82867105	18.82867105
2126	2126	PALM SPRINGS	33.77217945	33.77217945
2127	2127	FRENCH CAMP	37.876291	37.876291
2128	2128	FULSHEAR	29.690292	29.690292
2129	2129	FORT YUKON	66.5647222	66.5647222
2130	2130	BAINBRIDGE ISLAND	47.6475683	47.6475683
2131	2131	GOLD RIVER	49.7807549	49.7807549
2132	2132	WHITEWATER	37.9647365	37.9647365
2133	2133	POWELL	46.9109569	46.9109569
2134	2134	SCOTTS MILLS	45.0433165	45.0433165
2135	2135	MOUND HOUSE	22.21806765	22.21806765
2136	2136	KYKOTSMOVI VILLAGE	35.8496945	35.8496945
2137	2137	CUERO	29.0938036	29.0938036
2138	2138	MOHAVE VALLEY	35.0527235	35.0527235
2139	2139	ALBION	54.31536155	54.31536155
2140	2140	FAIR OAKS	38.642897	38.642897
2141	2141	WOOD VILLAGE	45.5351189	45.5351189
2142	2142	WOODLAND	38.6786109	38.6786109
2143	2143	SAN ANGELO	31.4649685	31.4649685
2144	2144	MINOT	47.6698594	47.6698594
2145	2145	SUN PRAIRIE	43.1834579	43.1834579
2146	2146	PRICE	39.5994095	39.5994095
2147	2147	MOAB	38.5738096	38.5738096
2148	2148	EL CERRITO	33.8410146	33.8410146
2149	2149	ANCHOR POINT	59.76826	59.76826
2150	2150	WOODWAY	31.5059105	31.5059105
2151	2151	RAVENEL	49.514545	49.514545
2152	2152	CURTIS	43.1269872	43.1269872
2153	2153	BIG LAKE	31.1954739	31.1954739
2154	2154	INDIAN WELLS	33.7217965	33.7217965
2155	2155	GROESBECK	31.5243379	31.5243379
2156	2156	NAVASOTA	30.3874135	30.3874135
2157	2157	WILDOMAR	33.5939372	33.5939372
2158	2158	BAXTER	36.2820691	36.2820691
2159	2159	PROSPER	33.2385763	33.2385763
2160	2160	GERBER	40.0562678	40.0562678
2161	2161	ESPANOLA	35.9910962	35.9910962
2162	2162	VALLE CRUCIS	36.2092942	36.2092942
2163	2163	LOVINGTON	32.9442913	32.9442913
2164	2164	FRONT ROYAL	38.9178538	38.9178538
2165	2165	OSHKOSH	44.0206919	44.0206919
2166	2166	OXFORD	51.7520131	51.7520131
2167	2167	CANDLER	33.3061605	33.3061605
2168	2168	OLD SAYBROOK	41.2917652	41.2917652
2169	2169	EVANS	40.3763701	40.3763701
2170	2170	NORTH ANDOVER	42.6839894	42.6839894
2171	2171	DELRAY BEACH	26.4614625	26.4614625
2172	2172	ANNANDALE	45.2627428	45.2627428
2173	2173	SAINT MICHAELS	35.6512365	35.6512365
2174	2174	GRANBURY	32.4407788	32.4407788
2175	2175	SANDPOINT	48.2765903	48.2765903
2176	2176	GROVELAND	28.5602149	28.5602149
2177	2177	ILIAMNA	59.7532274	59.7532274
2178	2178	BUXTON	53.2593422	53.2593422
2179	2179	CEDAR CREST	37.2466536	37.2466536
2180	2180	NORTH ARLINGTON	40.788434	40.788434
2181	2181	LAKE JACKSON	29.0338575	29.0338575
2182	2182	MARCUS HOOK	39.8194467	39.8194467
2183	2183	HINCKLEY	46.0113409	46.0113409
2184	2184	SPANISH FORK	40.1150133	40.1150133
2185	2185	FORT DUCHESNE	40.2852395	40.2852395
2186	2186	CORNELIUS	35.481705	35.481705
2187	2187	PALM CITY	27.1713925	27.1713925
2188	2188	PARSIPPANY	40.8578772	40.8578772
2189	2189	MURRAYVILLE	-35.2625514	-35.2625514
2190	2190	CORONA DEL MAR	33.5995916	33.5995916
2191	2191	PERRY	38.0772859	38.0772859
2192	2192	LATHROP	37.8227046	37.8227046
2193	2193	BON AIR	37.5190675	37.5190675
2194	2194	WINCHESTER	51.0612766	51.0612766
2195	2195	HAZELHURST	53.6367971	53.6367971
2196	2196	FRANKFORT	50.1106444	50.1106444
2197	2197	PANAMA CITY BEACH	30.1765914	30.1765914
2198	2198	BAL HARBOUR	-28.0271198	-28.0271198
2199	2199	TEXAS CITY	29.396013	29.396013
2200	2200	LOCUST GROVE	33.3459495	33.3459495
2201	2201	LAKE PLACID	44.279621	44.279621
2202	2202	POTOMAC FALLS	39.0134428	39.0134428
2203	2203	GRANITEVILLE	39.4407321	39.4407321
2204	2204	ALTOONA	40.518681	40.518681
2205	2205	CUMMING	41.4833235	41.4833235
2206	2206	SYOSSET	40.81871415	40.81871415
2207	2207	BELVEDERE TIBURON	37.8771208	37.8771208
2208	2208	REDDING	40.5863563	40.5863563
2209	2209	SAINT PETERSBURG	59.938732	59.938732
2210	2210	KENNETT SQUARE	39.8467414	39.8467414
2211	2211	PEARSON	51.51670995	51.51670995
2212	2212	BREWSTER	29.8462742	29.8462742
2213	2213	CLEMMONS	36.0215258	36.0215258
2214	2214	PINK HILL	41.9012036	41.9012036
2215	2215	RYDAL	40.1064344	40.1064344
2216	2216	BOYNTON BEACH	26.5256179	26.5256179
2217	2217	PUEBLO OF ACOMA	34.8960604	34.8960604
2218	2218	NETCONG	40.8989877	40.8989877
2219	2219	DUMFRIES	55.069836	55.069836
2220	2220	SUMMERVILLE	33.0186699	33.0186699
2221	2221	ELIZABETH CITY	36.2956836	36.2956836
2222	2222	SACO	35.4444022	35.4444022
2223	2223	PORT RICHEY	28.2716755	28.2716755
2224	2224	MOUNT HOLLY	39.9928898	39.9928898
2225	2225	SUMTER	28.6689748	28.6689748
2226	2226	SUFFOLK	52.24100135	52.24100135
2227	2227	RUTHERFORDTON	35.3692877	35.3692877
2228	2228	WINTER HAVEN	28.0222435	28.0222435
2229	2229	TAKOMA PARK	38.9778882	38.9778882
2230	2230	CARPENTERSVILLE	42.1211364	42.1211364
2231	2231	CUDAHY	33.9620584	33.9620584
2232	2232	HANCEVILLE	34.0623275	34.0623275
2233	2233	TEMPLE TERRACE	28.04075495	28.04075495
2234	2234	SADDLE BROOK	40.898988	40.898988
2235	2235	MORGANTON	35.7454291	35.7454291
2236	2236	MAIDEN	35.5766048	35.5766048
2237	2237	ALDIE	38.9755174	38.9755174
2238	2238	ORANGE PARK	30.1654707	30.1654707
2239	2239	ONIDA	44.7056399	44.7056399
2240	2240	CAPE CANAVERAL	28.45077	28.45077
2241	2241	VILLA RICA	33.732052	33.732052
2242	2242	GASTON	45.4362259	45.4362259
2243	2243	MENIFEE	33.6864432	33.6864432
2244	2244	LYNDHURST	40.8120247	40.8120247
2245	2245	BALCH SPRINGS	32.7287413	32.7287413
2246	2246	PENNINGTON	48.0513335	48.0513335
2247	2247	PLANT CITY	28.01806015	28.01806015
2248	2248	WALSENBURG	37.628564	37.628564
2249	2249	MAHWAH	41.0887072	41.0887072
2250	2250	WARMINSTER	51.21507655	51.21507655
2251	2251	JENKS	36.0228734	36.0228734
2252	2252	NATURL BR STA		
2253	2253	FAIRMOUNT HEIGHTS	38.9011623	38.9011623
2254	2254	EDGEMERE	40.596365	40.596365
2255	2255	STOCKBRIDGE	33.5442781	33.5442781
2256	2256	BURTONSVILLE	39.1096795	39.1096795
2257	2257	TRACY	37.7385507	37.7385507
2258	2258	MULDRAUGH	37.9369155	37.9369155
2259	2259	STANHOPE	42.2888675	42.2888675
2260	2260	NANTICOKE	41.2052654	41.2052654
2261	2261	RUSKIN	27.7013603	27.7013603
2262	2262	SOUTH CHESTERFIELD	34.735989	34.735989
2263	2263	KINGSTON	17.9712148	17.9712148
2264	2264	PALISADES PARK	40.8481556	40.8481556
2265	2265	RUSTBURG	37.2756925	37.2756925
2266	2266	BEL AIR	34.0827278	34.0827278
2267	2267	FORT WALTON BEACH	30.4057552	30.4057552
2268	2268	ARDEN	49.69801175	49.69801175
2269	2269	WARRENTON	38.7135498	38.7135498
2270	2270	TARPON SPRINGS	28.14808295	28.14808295
2271	2271	KINGS MOUNTAIN	35.2450607	35.2450607
2272	2272	INGLIS	29.0302514	29.0302514
2273	2273	BALM	27.7594736	27.7594736
2274	2274	LOGANVILLE	33.8389977	33.8389977
2275	2275	CANTONMENT	32.5287511	32.5287511
2276	2276	PFLUGERVILLE	30.4393696	30.4393696
2277	2277	HUNTERSVILLE	35.4108278	35.4108278
2278	2278	LINWOOD	39.0013921	39.0013921
2279	2279	HOMESTEAD	25.4718946	25.4718946
2280	2280	ATLANTIC BEACH	40.5886547	40.5886547
2281	2281	BALL GROUND	34.3382257	34.3382257
2282	2282	STONY POINT	41.2295386	41.2295386
2283	2283	COCONUT CREEK	26.2714628	26.2714628
2284	2284	WAKE FOREST	35.9803138	35.9803138
2285	2285	EAST FLAT ROCK	35.287417	35.287417
2286	2286	CLERMONT	49.3780921	49.3780921
2287	2287	WATERBURY	41.5538091	41.5538091
2288	2288	HAMMONTON	39.6365056	39.6365056
2289	2289	GARFIELD	39.5462048	39.5462048
2290	2290	UPPER CHICHESTER	-32.165	-32.165
2291	2291	KISSIMMEE	28.2918995	28.2918995
2292	2292	ROSELLE	41.9849897	41.9849897
2293	2293	KENILWORTH	42.0894728	42.0894728
2294	2294	HICKORY	37.959055	37.959055
2295	2295	IRMO	34.08846885	34.08846885
2296	2296	IVYLAND	40.2078863	40.2078863
2297	2297	EASLEY	34.8269276	34.8269276
2298	2298	QUAKERTOWN	40.43892025	40.43892025
2299	2299	DE GRAFF	45.2632935	45.2632935
2300	2300	MOON TOWNSHIP	40.5061	40.5061
2301	2301	CUTLER BAY	25.5783	25.5783
2302	2302	ROYERSFORD	40.1850848	40.1850848
2303	2303	BELLE GLADE	26.6845104	26.6845104
2304	2304	VALHALLA	41.0754695	41.0754695
2305	2305	PALMETTO BAY	25.6217715	25.6217715
2306	2306	CYNTHIANA	38.3903526	38.3903526
2307	2307	OAKVILLE	43.447436	43.447436
2308	2308	LOUISA	41.206668	41.206668
2309	2309	SCRANTON	41.4086874	41.4086874
2310	2310	FINKSBURG	39.4928811	39.4928811
2311	2311	LORTON	38.700202	38.700202
2312	2312	ARCHDALE	35.914581	35.914581
2313	2313	SWEDESBORO	39.7476136	39.7476136
2314	2314	NEWTOWN SQUARE	39.9868117	39.9868117
2315	2315	FUQUAY VARINA	35.5843849	35.5843849
2316	2316	PEMBROKE PINES	26.0031465	26.0031465
2317	2317	SANDY SPRINGS	33.9242688	33.9242688
2318	2318	COCOA BEACH	28.3194741	28.3194741
2319	2319	HALLANDALE BEACH	25.9812025	25.9812025
2320	2320	LURAY	48.7201659	48.7201659
2321	2321	ROXBORO	36.3937519	36.3937519
2322	2322	LILBURN	33.8901036	33.8901036
2323	2323	BENSALEM	40.1045549	40.1045549
2324	2324	CROYDON	51.3713049	51.3713049
2325	2325	HELLERTOWN	40.5794426	40.5794426
2326	2326	RANSOM CANYON	33.5311665	33.5311665
2327	2327	CHAMBLEE	33.892176	33.892176
2328	2328	BELGRADE	44.8178131	44.8178131
2329	2329	ENGLISHTOWN	40.2973319	40.2973319
2330	2330	CROFTON	39.01595465	39.01595465
2331	2331	OLDSMAR	28.0341847	28.0341847
2332	2332	MYRTLE BEACH	33.6956461	33.6956461
2333	2333	WILKESBORO	36.145965	36.145965
2334	2334	TAHOE CITY	39.1689372	39.1689372
2335	2335	SCOTCH PLAINS	40.639751	40.639751
2336	2336	SOUTH HOUSTON	29.663008	29.663008
2337	2337	KINGSTOWNE	38.7747251	38.7747251
2338	2338	KERNERSVILLE	36.1198589	36.1198589
2339	2339	WAXAHACHIE	32.3944908	32.3944908
2340	2340	LAKE CITY	44.4478474	44.4478474
2341	2341	DRAPER	40.524761	40.524761
2342	2342	NUTLEY	40.8223223	40.8223223
2343	2343	DAVIDSON	35.4992614	35.4992614
2344	2344	MIDLAND CITY	31.3187878	31.3187878
2345	2345	PINECREST	25.6670476	25.6670476
2346	2346	CHERAW	38.1069515	38.1069515
2347	2347	MIDLOTHIAN	55.8211826	55.8211826
2348	2348	MONROE TOWNSHIP	41.8961203	41.8961203
2349	2349	SOUTH BARRINGTON	42.088522	42.088522
2350	2350	WALLINGFORD	51.60036085	51.60036085
2351	2351	PORT JEFFERSON STATI		
2352	2352	IRWIN	41.7918378	41.7918378
2353	2353	ANDALUSIA	37.3399964	37.3399964
2354	2354	ROYSE CITY	32.9761045	32.9761045
2355	2355	WILKES BARRE	41.2464824	41.2464824
2356	2356	DANIA BEACH	26.0524224	26.0524224
2357	2357	WEST MIAMI	25.7560176	25.7560176
2358	2358	ALTAMONTE SPRINGS	28.6649055	28.6649055
2359	2359	PLAINVIEW	34.1847936	34.1847936
2360	2360	WEST CALDWELL	40.8409329	40.8409329
2361	2361	EXETER	50.7255794	50.7255794
2362	2362	HIGH RIDGE	38.4589432	38.4589432
2363	2363	ALACHUA	29.675568	29.675568
2364	2364	HANOVER TOWNSHIP	42.13316685	42.13316685
2365	2365	BROOKSHIRE	29.7860643	29.7860643
2366	2366	ANTHEM	33.857492	33.857492
2367	2367	CAYCE	33.9657091	33.9657091
2368	2368	OCEAN CITY	39.2776156	39.2776156
2369	2369	UPPER SADDLE RIVER	41.0584299	41.0584299
2370	2370	BELLMAWR	39.8676134	39.8676134
2371	2371	FLORAL PARK	40.7246999	40.7246999
2372	2372	NAPLES	40.8358846	40.8358846
2373	2373	EAST BRUNSWICK	-37.7688802	-37.7688802
2374	2374	ROBINSON	31.4676687	31.4676687
2375	2375	KANNAPOLIS	35.4874708	35.4874708
2376	2376	NORTH BERGEN	40.8042674	40.8042674
2377	2377	COMFORT	29.967715	29.967715
2378	2378	E RNCHO DMNGZ		
2379	2379	WADMALAW ISLAND	32.6710134	32.6710134
2380	2380	SAINT PAULS	-36.85445635	-36.85445635
2381	2381	SAYREVILLE	40.4635362	40.4635362
2382	2382	BIG SANDY	37.4642789	37.4642789
2383	2383	JOPPA	32.0443395	32.0443395
2384	2384	NORTH HAVEN	41.0128704	41.0128704
2385	2385	JUSTICE	41.7456772	41.7456772
2386	2386	HIBBING	47.427155	47.427155
2387	2387	UNDERWOOD	41.3872477	41.3872477
2388	2388	YARDLEY	40.245664	40.245664
2389	2389	INDEPENDENCE	39.0924792	39.0924792
2390	2390	FOREST PARK	41.8794989	41.8794989
2391	2391	SEBRING	27.4957453	27.4957453
2392	2392	HEMET	33.7475203	33.7475203
2393	2393	LINO LAKES	45.1602442	45.1602442
2394	2394	REIDSVILLE	36.3548586	36.3548586
2395	2395	BASALT	43.315471	43.315471
2396	2396	CHESHIRE	41.4989861	41.4989861
2397	2397	CLUTE	29.0246906	29.0246906
2398	2398	BAYONNE	43.4933379	43.4933379
2399	2399	EL SOBRANTE	37.9774476	37.9774476
2400	2400	COCONUT GROVE	25.7398164	25.7398164
2401	2401	CLIVE	41.6096559	41.6096559
2402	2402	REISTERSTOWN	39.4586723	39.4586723
2403	2403	EASTOVER	35.099219	35.099219
2404	2404	LANDOVER	38.92531295	38.92531295
2405	2405	ARAB	34.3181497	34.3181497
2406	2406	RYE BROOK	41.0192641	41.0192641
2407	2407	LOWLAND	13.0834572	13.0834572
2408	2408	ATLANTIC	41.403691	41.403691
2409	2409	HAZLET	50.40096315	50.40096315
2410	2410	DORAVILLE	33.8981579	33.8981579
2411	2411	BUTTE	39.6519275	39.6519275
2412	2412	CHRISTIANSBURG	37.1298517	37.1298517
2413	2413	RED BLUFF	40.1784279	40.1784279
2414	2414	LIBERTY HILL	30.66090975	30.66090975
2415	2415	LANDER	39.9059878	39.9059878
2416	2416	LONG PRAIRIE	45.9741126	45.9741126
2417	2417	OSBORNE	39.3351558	39.3351558
2418	2418	ELLENWOOD	33.6101096	33.6101096
2419	2419	DUNCANVILLE	32.6518004	32.6518004
2420	2420	BONNERS FERRY	48.6912781	48.6912781
2421	2421	SURPRISE	33.6292271	33.6292271
2422	2422	SEA BRIGHT	40.3615488	40.3615488
2423	2423	MCMINNVILLE	45.2100367	45.2100367
2424	2424	SYLACAUGA	33.1731716	33.1731716
2425	2425	CASSELBERRY	28.654276	28.654276
2426	2426	ENUMCLAW	47.2047793	47.2047793
2427	2427	BISHOPVILLE	45.0462987	45.0462987
2428	2428	ELK CITY	37.2892269	37.2892269
2429	2429	DELRAN	40.0179845	40.0179845
2430	2430	PHENIX CITY	32.4709761	32.4709761
2431	2431	GAP	44.5612032	44.5612032
2432	2432	NEW BERN	35.1084931	35.1084931
2433	2433	EAGLE	39.6161124	39.6161124
2434	2434	FRANKLIN LAKES	41.0167639	41.0167639
2435	2435	WINNER	43.376667	43.376667
2436	2436	GENESEO	38.5161207	38.5161207
2437	2437	OKATIE	60.9572354	60.9572354
2438	2438	NORTHVALE	41.0066649	41.0066649
2439	2439	COLLINGSWOOD	39.9181686	39.9181686
2440	2440	WALDORF	50.4855665	50.4855665
2441	2441	CLARKSON	37.4953332	37.4953332
2442	2442	LAKE NEBAGAMON	46.5149823	46.5149823
2443	2443	OPELIKA	32.65232605	32.65232605
